{
"type": "FeatureCollection",
"features": [
{ "type": "Feature", "properties": { "Facility_Type": "Child Health Center", "Facility_Name": "La Clinica Del Barrio" }, "geometry": { "type": "Point", "coordinates": [ -73.932667945174003, 40.798205044469 ] } },
{ "type": "Feature", "properties": { "Facility_Type": "Acute Care Hospital", "Facility_Name": "Elmhurst Hospital Center" }, "geometry": { "type": "Point", "coordinates": [ -73.878351155182003, 40.738710402563001 ] } },
{ "type": "Feature", "properties": { "Facility_Type": "Child Health Center", "Facility_Name": "Ida G. Israel Community Health Center" }, "geometry": { "type": "Point", "coordinates": [ -73.989497148121004, 40.578488319967001 ] } },
{ "type": "Feature", "properties": { "Facility_Type": "Child Health Center", "Facility_Name": "South Queens Community Health Center" }, "geometry": { "type": "Point", "coordinates": [ -73.775306901692005, 40.676945262114003 ] } },
{ "type": "Feature", "properties": { "Facility_Type": "Child Health Center", "Facility_Name": "Melrose Houses Child Health Clinic" }, "geometry": { "type": "Point", "coordinates": [ -73.917709787212004, 40.821301194645997 ] } },
{ "type": "Feature", "properties": { "Facility_Type": "Child Health Center", "Facility_Name": "Daniel Webster Houses Child Health Clinic" }, "geometry": { "type": "Point", "coordinates": [ -73.909534601874, 40.832279848966998 ] } },
{ "type": "Feature", "properties": { "Facility_Type": "Diagnostic & Treatment Center", "Facility_Name": "Segundo Ruiz Belvis Diagnostic & Treatment Center" }, "geometry": { "type": "Point", "coordinates": [ -73.916811846347997, 40.810121864042998 ] } },
{ "type": "Feature", "properties": { "Facility_Type": "Child Health Center", "Facility_Name": "Parsons Communicare Clinic" }, "geometry": { "type": "Point", "coordinates": [ -73.792820999789001, 40.71311535449 ] } },
{ "type": "Feature", "properties": { "Facility_Type": "Child Health Center", "Facility_Name": "Queens Hospital Center" }, "geometry": { "type": "Point", "coordinates": [ -73.792820999789001, 40.71311535449 ] } },
{ "type": "Feature", "properties": { "Facility_Type": "Child Health Center", "Facility_Name": "Cumberland Diagnostic & Treatment Center" }, "geometry": { "type": "Point", "coordinates": [ -73.976235572166004, 40.695143584664997 ] } },
{ "type": "Feature", "properties": { "Facility_Type": "Child Health Center", "Facility_Name": "Junction Boulevard Child Health Clinic" }, "geometry": { "type": "Point", "coordinates": [ -73.883612545283, 40.751630739367002 ] } },
{ "type": "Feature", "properties": { "Facility_Type": "Child Health Center", "Facility_Name": "Woodhull Medical and Mental Health Center" }, "geometry": { "type": "Point", "coordinates": [ -73.941643858765005, 40.700526614780003 ] } },
{ "type": "Feature", "properties": { "Facility_Type": "Child Health Center", "Facility_Name": "Eleanor Roosevelt Houses Child Health Clinic" }, "geometry": { "type": "Point", "coordinates": [ -73.935456875217994, 40.693923715490001 ] } },
{ "type": "Feature", "properties": { "Facility_Type": "Acute Care Hospital", "Facility_Name": "Jacobi Medical Center" }, "geometry": { "type": "Point", "coordinates": [ -73.846571204086999, 40.857397104611003 ] } },
{ "type": "Feature", "properties": { "Facility_Type": "Acute Care Hospital", "Facility_Name": "Metropolitan Hospital Center" }, "geometry": { "type": "Point", "coordinates": [ -73.943795653642994, 40.784557024104998 ] } },
{ "type": "Feature", "properties": { "Facility_Type": "Child Health Center", "Facility_Name": "Bushwick Communicare" }, "geometry": { "type": "Point", "coordinates": [ -73.919223916665999, 40.694738427186998 ] } },
{ "type": "Feature", "properties": { "Facility_Type": "Child Health Center", "Facility_Name": "Lafayette Houses Child Health Clinic" }, "geometry": { "type": "Point", "coordinates": [ -73.959782659482997, 40.690366628996003 ] } },
{ "type": "Feature", "properties": { "Facility_Type": "Diagnostic & Treatment Center", "Facility_Name": "East New York Diagnostic & Treatment Center" }, "geometry": { "type": "Point", "coordinates": [ -73.895205293930005, 40.671962495107003 ] } },
{ "type": "Feature", "properties": { "Facility_Type": "Child Health Center", "Facility_Name": "Williamsburg Child Health Clinic" }, "geometry": { "type": "Point", "coordinates": [ -73.943994071543003, 40.712103238036001 ] } },
{ "type": "Feature", "properties": { "Facility_Type": "Acute Care Hospital", "Facility_Name": "North Central Bronx Hospital" }, "geometry": { "type": "Point", "coordinates": [ -73.881592877502001, 40.880463372455999 ] } },
{ "type": "Feature", "properties": { "Facility_Type": "Child Health Center", "Facility_Name": "Harlem Hospital Center" }, "geometry": { "type": "Point", "coordinates": [ -73.940602831291002, 40.814275217502001 ] } },
{ "type": "Feature", "properties": { "Facility_Type": "Child Health Center", "Facility_Name": "Sydenham Health Center" }, "geometry": { "type": "Point", "coordinates": [ -73.949197484072997, 40.809338651192 ] } },
{ "type": "Feature", "properties": { "Facility_Type": "Nursing Home", "Facility_Name": "Dr. Susan Smith McKinney Nursing and Rehabilitation Center" }, "geometry": { "type": "Point", "coordinates": [ -73.939761495742005, 40.66005451681 ] } },
{ "type": "Feature", "properties": { "Facility_Type": "Child Health Center", "Facility_Name": "Lincoln  Medical &  Mental Health Center" }, "geometry": { "type": "Point", "coordinates": [ -73.924200271483002, 40.817688484049 ] } },
{ "type": "Feature", "properties": { "Facility_Type": "Child Health Center", "Facility_Name": "Corona Child Health Clinic" }, "geometry": { "type": "Point", "coordinates": [ -73.853040688576996, 40.749678220374001 ] } },
{ "type": "Feature", "properties": { "Facility_Type": "Nursing Home", "Facility_Name": "Sea View Hospital Rehabilitation Center & Home" }, "geometry": { "type": "Point", "coordinates": [ -74.131766325900998, 40.597953866387002 ] } },
{ "type": "Feature", "properties": { "Facility_Type": "Child Health Center", "Facility_Name": "Springfield Gardens Medical Center" }, "geometry": { "type": "Point", "coordinates": [ -73.750873933285007, 40.669711181225999 ] } },
{ "type": "Feature", "properties": { "Facility_Type": "Child Health Center", "Facility_Name": "Segundo Ruiz Belvis Diagnostic & Treatment Center" }, "geometry": { "type": "Point", "coordinates": [ -73.919313161708004, 40.810901316477 ] } },
{ "type": "Feature", "properties": { "Facility_Type": "Diagnostic & Treatment Center", "Facility_Name": "Morrisania Diagnostic & Treatment Center" }, "geometry": { "type": "Point", "coordinates": [ -73.920034037018993, 40.835906387949002 ] } },
{ "type": "Feature", "properties": { "Facility_Type": "Child Health Center", "Facility_Name": "Renaissance Health Care Network Diagnostic & Treatment Center" }, "geometry": { "type": "Point", "coordinates": [ -73.949197484072997, 40.809338651192 ] } },
{ "type": "Feature", "properties": { "Facility_Type": "Child Health Center", "Facility_Name": "Washington Heights Child Health Care Center" }, "geometry": { "type": "Point", "coordinates": [ -73.939961696626995, 40.841127875341002 ] } },
{ "type": "Feature", "properties": { "Facility_Type": "Child Health Center", "Facility_Name": "Jacobi Medical Center" }, "geometry": { "type": "Point", "coordinates": [ -73.846571204086999, 40.857397104611003 ] } },
{ "type": "Feature", "properties": { "Facility_Type": "Diagnostic & Treatment Center", "Facility_Name": "Cumberland Diagnostic & Treatment Center" }, "geometry": { "type": "Point", "coordinates": [ -73.976235572166004, 40.695143584664997 ] } },
{ "type": "Feature", "properties": { "Facility_Type": "Diagnostic & Treatment Center", "Facility_Name": "Renaissance Health Care Network Diagnostic & Treatment Center" }, "geometry": { "type": "Point", "coordinates": [ -73.949197484072997, 40.809338651192 ] } },
{ "type": "Feature", "properties": { "Facility_Type": "Acute Care Hospital", "Facility_Name": "Kings County Hospital Center" }, "geometry": { "type": "Point", "coordinates": [ -73.944662615536998, 40.655761808605 ] } },
{ "type": "Feature", "properties": { "Facility_Type": "Nursing Home", "Facility_Name": "Coler-Goldwater Specialty Hospital and Nursing Facility/Coler Campus" }, "geometry": { "type": "Point", "coordinates": [ -73.949999674945005, 40.761976486225997 ] } },
{ "type": "Feature", "properties": { "Facility_Type": "Child Health Center", "Facility_Name": "Kings County Hospital Center" }, "geometry": { "type": "Point", "coordinates": [ -73.944662615536998, 40.655761808605 ] } },
{ "type": "Feature", "properties": { "Facility_Type": "Acute Care Hospital", "Facility_Name": "Bellevue Hospital Center" }, "geometry": { "type": "Point", "coordinates": [ -73.976572846644999, 40.739623207480001 ] } },
{ "type": "Feature", "properties": { "Facility_Type": "Child Health Center", "Facility_Name": "Roberto Clemente Health Center" }, "geometry": { "type": "Point", "coordinates": [ -73.979916628238001, 40.729301193289999 ] } },
{ "type": "Feature", "properties": { "Facility_Type": "Child Health Center", "Facility_Name": "Jonathan Williams Houses Child Health Clinic" }, "geometry": { "type": "Point", "coordinates": [ -73.956165823568995, 40.715367609829002 ] } },
{ "type": "Feature", "properties": { "Facility_Type": "Child Health Center", "Facility_Name": "Grant Houses Clinic" }, "geometry": { "type": "Point", "coordinates": [ -73.958430492697005, 40.815255660487999 ] } },
{ "type": "Feature", "properties": { "Facility_Type": "Child Health Center", "Facility_Name": "Dyckman Clinica De Las Americas" }, "geometry": { "type": "Point", "coordinates": [ -73.923807635990002, 40.861957938597001 ] } },
{ "type": "Feature", "properties": { "Facility_Type": "Child Health Center", "Facility_Name": "East New York Diagnostic & Treatment Center" }, "geometry": { "type": "Point", "coordinates": [ -73.895205293930005, 40.671962495107003 ] } },
{ "type": "Feature", "properties": { "Facility_Type": "Child Health Center", "Facility_Name": "Brownsville Child Health Clinic" }, "geometry": { "type": "Point", "coordinates": [ -73.911410916321003, 40.664911170498002 ] } },
{ "type": "Feature", "properties": { "Facility_Type": "Acute Care Hospital", "Facility_Name": "Coney Island Hospital" }, "geometry": { "type": "Point", "coordinates": [ -73.965830115778004, 40.586645433957003 ] } },
{ "type": "Feature", "properties": { "Facility_Type": "Child Health Center", "Facility_Name": "Williamsburg Health Center" }, "geometry": { "type": "Point", "coordinates": [ -73.943994071543003, 40.712103238036001 ] } },
{ "type": "Feature", "properties": { "Facility_Type": "Child Health Center", "Facility_Name": "Stapleton Child Health Clinic" }, "geometry": { "type": "Point", "coordinates": [ -74.076994470087001, 40.626576449487999 ] } },
{ "type": "Feature", "properties": { "Facility_Type": "Child Health Center", "Facility_Name": "Elmhurst Hospital Center" }, "geometry": { "type": "Point", "coordinates": [ -73.878351155182003, 40.738710402563001 ] } },
{ "type": "Feature", "properties": { "Facility_Type": "Child Health Center", "Facility_Name": "Homecrest Child Health Clinic" }, "geometry": { "type": "Point", "coordinates": [ -73.944368541174995, 40.601233507320998 ] } },
{ "type": "Feature", "properties": { "Facility_Type": "Child Health Center", "Facility_Name": "Mariner's Harbor Houses Child Health Clinic" }, "geometry": { "type": "Point", "coordinates": [ -74.157474896698005, 40.626097622510002 ] } },
{ "type": "Feature", "properties": { "Facility_Type": "Child Health Center", "Facility_Name": "Judson Health Center" }, "geometry": { "type": "Point", "coordinates": [ -73.995719412648, 40.721735692316997 ] } },
{ "type": "Feature", "properties": { "Facility_Type": "Child Health Center", "Facility_Name": "Metropolitan Hospital Center" }, "geometry": { "type": "Point", "coordinates": [ -73.943795653642994, 40.784557024104998 ] } },
{ "type": "Feature", "properties": { "Facility_Type": "Child Health Center", "Facility_Name": "Gunhill Health Center" }, "geometry": { "type": "Point", "coordinates": [ -73.857887416826003, 40.874626006886999 ] } },
{ "type": "Feature", "properties": { "Facility_Type": "Child Health Center", "Facility_Name": "Greenpoint Community Health Center" }, "geometry": { "type": "Point", "coordinates": [ -73.954045460054004, 40.729665609686002 ] } },
{ "type": "Feature", "properties": { "Facility_Type": "Acute Care Hospital", "Facility_Name": "Queens Hospital Center" }, "geometry": { "type": "Point", "coordinates": [ -73.792820999789001, 40.71311535449 ] } },
{ "type": "Feature", "properties": { "Facility_Type": "Diagnostic & Treatment Center", "Facility_Name": "Gouverneur Healthcare Services" }, "geometry": { "type": "Point", "coordinates": [ -73.987598534724, 40.712841397448003 ] } },
{ "type": "Feature", "properties": { "Facility_Type": "Child Health Center", "Facility_Name": "Gouverneur Diagnostic & Treatment Center" }, "geometry": { "type": "Point", "coordinates": [ -73.987598534724, 40.712841397448003 ] } },
{ "type": "Feature", "properties": { "Facility_Type": "Nursing Home", "Facility_Name": "Gouverneur Healthcare Services" }, "geometry": { "type": "Point", "coordinates": [ -73.987598534724, 40.712841397448003 ] } },
{ "type": "Feature", "properties": { "Facility_Type": "Child Health Center", "Facility_Name": "Fort Greene Child Health Clinic" }, "geometry": { "type": "Point", "coordinates": [ -73.982413019988996, 40.692053402322998 ] } },
{ "type": "Feature", "properties": { "Facility_Type": "Nursing Home", "Facility_Name": "Coler-Goldwater Specialty Hospital and Nursing Facility/Goldwater Campus" }, "geometry": { "type": "Point", "coordinates": [ -73.949999674945005, 40.761976486225997 ] } },
{ "type": "Feature", "properties": { "Facility_Type": "Child Health Center", "Facility_Name": "Sutter Avenue Child Health Clinic" }, "geometry": { "type": "Point", "coordinates": [ -73.878318817942997, 40.671899036219997 ] } },
{ "type": "Feature", "properties": { "Facility_Type": "Child Health Center", "Facility_Name": "Drew Hamilton Houses Health Center" }, "geometry": { "type": "Point", "coordinates": [ -73.942389748859, 40.822139979421003 ] } },
{ "type": "Feature", "properties": { "Facility_Type": "Child Health Center", "Facility_Name": "Woodside Houses Child Health Clinic" }, "geometry": { "type": "Point", "coordinates": [ -73.904847144079994, 40.745193764481002 ] } },
{ "type": "Feature", "properties": { "Facility_Type": "Acute Care Hospital", "Facility_Name": "Lincoln Medical and Mental Health Center" }, "geometry": { "type": "Point", "coordinates": [ -73.924200271483002, 40.817688484049 ] } },
{ "type": "Feature", "properties": { "Facility_Type": "Acute Care Hospital", "Facility_Name": "Harlem Hospital Center" }, "geometry": { "type": "Point", "coordinates": [ -73.940602831291002, 40.814275217502001 ] } },
{ "type": "Feature", "properties": { "Facility_Type": "Child Health Center", "Facility_Name": "Coney Island Hospital" }, "geometry": { "type": "Point", "coordinates": [ -73.965830115778004, 40.586645433957003 ] } },
{ "type": "Feature", "properties": { "Facility_Type": "Child Health Center", "Facility_Name": "Health Center at Tremont" }, "geometry": { "type": "Point", "coordinates": [ -73.894548724404004, 40.844000208274998 ] } },
{ "type": "Feature", "properties": { "Facility_Type": "Child Health Center", "Facility_Name": "North Central Bronx Hospital" }, "geometry": { "type": "Point", "coordinates": [ -73.881592877502001, 40.880463372455999 ] } },
{ "type": "Feature", "properties": { "Facility_Type": "Child Health Center", "Facility_Name": "Crown Heights Child Health Clinic" }, "geometry": { "type": "Point", "coordinates": [ -73.935701697385994, 40.673492222873001 ] } },
{ "type": "Feature", "properties": { "Facility_Type": "Child Health Center", "Facility_Name": "Baruch Houses Family Health Center" }, "geometry": { "type": "Point", "coordinates": [ -73.980135660502995, 40.716367017868997 ] } },
{ "type": "Feature", "properties": { "Facility_Type": "Child Health Center", "Facility_Name": "Manhattanville/St. Nicholas Houses Child Health Care Center" }, "geometry": { "type": "Point", "coordinates": [ -73.949657755163003, 40.811276995393001 ] } },
{ "type": "Feature", "properties": { "Facility_Type": "Child Health Center", "Facility_Name": "Sumner Avenue Houses Child Health Clinic" }, "geometry": { "type": "Point", "coordinates": [ -73.941006610822001, 40.697855287659003 ] } },
{ "type": "Feature", "properties": { "Facility_Type": "Acute Care Hospital", "Facility_Name": "Woodhull Medical and Mental Health Center" }, "geometry": { "type": "Point", "coordinates": [ -73.941643858765005, 40.700526614780003 ] } },
{ "type": "Feature", "properties": { "Facility_Type": "Child Health Center", "Facility_Name": "Bushwick Community Health Center" }, "geometry": { "type": "Point", "coordinates": [ -73.909082385177996, 40.684303566262003 ] } },
{ "type": "Feature", "properties": { "Facility_Type": "Child Health Center", "Facility_Name": "Bellevue Hospital Center" }, "geometry": { "type": "Point", "coordinates": [ -73.976572846644999, 40.739623207480001 ] } },
{ "type": "Feature", "properties": { "Facility_Type": "Child Health Center", "Facility_Name": "Ridgewood Communicare Clinic" }, "geometry": { "type": "Point", "coordinates": [ -73.905433089970003, 40.702949636008 ] } },
{ "type": "Feature", "properties": { "Facility_Type": "Child Health Center", "Facility_Name": "Smith Communicare Health Center" }, "geometry": { "type": "Point", "coordinates": [ -73.997542215577994, 40.711969729879002 ] } },
{ "type": "Feature", "properties": { "Facility_Type": "Child Health Center", "Facility_Name": "Morrisania Diagnostic & Treatment Center" }, "geometry": { "type": "Point", "coordinates": [ -73.920034037018993, 40.835906387949002 ] } }
]
}
