system_code,location_code,location_name,Managed_by_name,location_type_description,Location_Category_Description,Status_descriptions,primary_address_line_1,lon,lat
15K001,K001,P.S. 001 The Bergen,DOE,General Academic,Elementary,Open,309 47 STREET,-74.01142,40.648959
17K002,K002,Parkside Preparatory Academy,DOE,General Academic,Junior High-Intermediate-Middle,Open,655 PARKSIDE AVENUE,-73.951575,40.656423
13K003,K003,P.S. 003 The Bedford Village,DOE,General Academic,Elementary,Open,50 JEFFERSON AVENUE,-73.955219,40.682311
75K004,K004,P.S. K004,DOE,Special Education,Elementary,Open,923 JEROME STREET,-73.879276,40.6585
16K005,K005,P.S. 005 Dr. Ronald McNair,DOE,General Academic,Elementary,Open,820 HANCOCK STREET,-73.92197,40.685241
17K006,K006,Norma Adams Clemons Academy,DOE,General Academic,Elementary,Open,43 SNYDER AVENUE,-73.956279,40.648973
19K007,K007,P.S. 007 Abraham Lincoln,DOE,General Academic,Elementary,Open,858 JAMAICA AVENUE,-73.872983,40.689213
13K008,K008,P.S. 008 Robert Fulton,DOE,General Academic,K-8,Open,37 HICKS STREET,-73.992841,40.700709
13K009,K009,P.S. 009 Teunis G. Bergen,DOE,General Academic,Elementary,Open,80 UNDERHILL AVENUE,-73.966333,40.678554
15K010,K010,"Magnet School of Math, Science and Design Technolo",DOE,General Academic,Elementary,Open,511 7 AVENUE,-73.985946,40.660912
13K011,K011,P.S. 011 Purvis J. Behan,DOE,General Academic,Elementary,Open,419 WAVERLY AVENUE,-73.96589,40.685896
17K012,K012,Dr. Jacqueline Peek-Davis School,DOE,General Academic,Elementary,Open,430 HOWARD AVENUE,-73.920095,40.673124
19K013,K013,P.S. 013 Roberto Clemente,DOE,General Academic,Elementary,Open,557 PENNSYLVANIA AVENUE,-73.893328,40.664067
22K014,K014,J.H.S. 014 Shell Bank,DOE,General Academic,Junior High-Intermediate-Middle,Open,2424 BATCHELDER STREET,-73.938107,40.593232
20K314,K314,PS 314 Luis Munoz Marin,DOE,General Academic,Elementary,Closed,330 59 STREET,-74.019,40.6422
15K015,K015,P.S. 015 Patrick F. Daly,DOE,General Academic,Elementary,Open,71 SULLIVAN STREET,-74.011864,40.677085
14K016,K016,P.S. 016 Leonard Dunkly,DOE,General Academic,Elementary,Open,157 WILSON STREET,-73.962049,40.706069
14K017,K017,P.S. 017 Henry D. Woodworth,DOE,General Academic,Elementary,Open,208 NORTH  5 STREET,-73.9573,40.715268
14K018,K018,P.S. 018 Edward Bush,DOE,General Academic,Elementary,Open,101 MAUJER STREET,-73.946695,40.71088
14K019,K019,P.S. 019 Roberto Clemente,DOE,General Academic,Elementary,Closed,325 SOUTH  3 STREET,-73.954678,40.710107
13K020,K020,P.S. 020 Clinton Hill,DOE,General Academic,Elementary,Open,225 ADELPHI STREET,-73.970896,40.690742
16K021,K021,P.S. 021 Crispus Attucks,DOE,General Academic,Elementary,Open,180 CHAUNCEY STREET,-73.926673,40.68035
17K022,K022,P.S. 022,DOE,General Academic,Elementary,Closed,443 ST MARKS AVENUE,-73.960093,40.6771
14K023,K023,P.S. 023 Carter G. Woodson,DOE,General Academic,Elementary,Open,545 WILLOUGHBY AVENUE,-73.947256,40.69447
15K024,K024,P.S. 024,DOE,General Academic,Elementary,Open,427 38 STREET,-74.004533,40.652832
16K025,K025,P.S. 025 Eubie Blake School,DOE,General Academic,Elementary,Open,787 LAFAYETTE AVENUE,-73.940749,40.691472
16K026,K026,P.S. 026 Jesse Owens,DOE,General Academic,Elementary,Open,1014 LAFAYETTE AVENUE,-73.9317,40.6921
16K026,K026,P.S. 026 Jesse Owens,DOE,General Academic,Elementary,Open,1014 LAFAYETTE AVENUE,-73.9317,40.6921
15K027,K027,Agnes Y. Humphrey School for Leadership,DOE,General Academic,K-12 all grades,Closed,27 HUNTINGTON STREET,-74.005151,40.677914
16K028,K028,P.S. 028 The Warren Prep Academy,DOE,General Academic,Elementary,Open,265 RALPH AVENUE,-73.921099,40.680239
15K029,K029,P.S. 029 John M. Harrigan,DOE,General Academic,Elementary,Open,425 HENRY STREET,-73.997447,40.686843
20K030,K030,P.S./I.S. 30 Mary White Ovington,DOE,General Academic,K-8,Open,7002 4TH AVENUE,-74.02395,40.633598
14K031,K031,P.S. 031 Samuel F. Dupont,DOE,General Academic,Elementary,Open,75 MESEROLE AVENUE,-73.954139,40.72697
15K032,K032,P.S. 032 Samuel Mills Sprole,DOE,General Academic,Elementary,Open,317 HOYT STREET,-73.991141,40.680159
14K033,K033,JHS 033 Mark Hopkins,DOE,General Academic,Junior High-Intermediate-Middle,Closed,70 TOMPKINS AVENUE,-73.9466,40.6971
14K034,K034,P.S. 034 Oliver H. Perry,DOE,General Academic,Elementary,Open,131 NORMAN AVENUE,-73.949756,40.726378
16K035,K035,M.S. 035 Stephen Decatur,DOE,General Academic,Junior High-Intermediate-Middle,Open,272 MACDONOUGH STREET,-73.935891,40.681528
75K036,K036,P.S. 36,DOE,Special Education,K-12 all grades,Open,2045 LINDEN BOULEVARD,-73.887195,40.660465
84K037,K037,Beginning with Children Charter School II,Charter,General Academic,K-8,Open,215 HEYWARD STREET,-73.953304,40.703996
15K038,K038,P.S. 038 The Pacific,DOE,General Academic,Elementary,Open,450 PACIFIC STREET,-73.982826,40.684945
15K039,K039,P.S. 039 Henry Bristow,DOE,General Academic,Elementary,Open,417 6 AVENUE,-73.982909,40.668644
16K040,K040,P.S. 040 George W. Carver,DOE,General Academic,Elementary,Open,265 RALPH AVENUE,-73.921099,40.680239
23K041,K041,P.S. 041 Francis White,DOE,General Academic,K-8,Open,411 THATFORD AVENUE,-73.906925,40.660455
23K041,K041,P.S. 041 Francis White,DOE,General Academic,K-8,Open,411 THATFORD AVENUE,-73.906925,40.660455
13K044,K044,P.S. 044 Marcus Garvey,DOE,General Academic,Elementary,Open,432 MONROE STREET,-73.940859,40.686213
32K045,K045,P.S./I.S. 045 Horace E. Greene,DOE,General Academic,K-8,Open,84 SCHAEFER STREET,-73.91043,40.686424
13K046,K046,P.S. 046 Edward C. Blum,DOE,General Academic,Elementary,Open,100 CLERMONT AVENUE,-73.971644,40.69453
20K048,K048,P.S. 048 Mapleton,DOE,General Academic,Elementary,Open,6015 18 AVENUE,-73.987165,40.621481
14K049,K049,J.H.S. 049 William J. Gaynor,DOE,General Academic,Junior High-Intermediate-Middle,Closed,223 GRAHAM AVENUE,-73.9436,40.71
14K050,K050,J.H.S. 050 John D. Wells,DOE,General Academic,Junior High-Intermediate-Middle,Open,183 SOUTH  3 STREET,-73.960137,40.711915
15K051,K051,M.S. 51 William Alexander,DOE,General Academic,Junior High-Intermediate-Middle,Open,350 5 AVENUE,-73.98505,40.672358
22K052,K052,P.S. 052 Sheepshead Bay,DOE,General Academic,Elementary,Open,2675 EAST  29 STREET,-73.940135,40.588372
75K053,K053,P.S. K053,DOE,Special Education,K-12 all grades,Open,544 7TH AVENUE,-73.988743,40.660805
13K054,K054,P.S. 054 Samuel C. Barnes,DOE,General Academic,Elementary,Open,195 SANDFORD STREET,-73.952504,40.692616
23K055,K055,I.S. 055 Ocean Hill Brownsville,DOE,General Academic,Junior High-Intermediate-Middle,Closed,2021 BERGEN STREET,-73.9133,40.6741
13K056,K056,P.S. 056 Lewis H. Latimer,DOE,General Academic,Elementary,Open,170 GATES AVENUE,-73.960536,40.684286
16K057,K057,Whitelaw Reid Academy of Arts and Business,DOE,General Academic,Junior High-Intermediate-Middle,Open,125 STUYVESANT AVENUE,-73.932254,40.691467
15K058,K058,P.S. 058 The Carroll,DOE,General Academic,Elementary,Open,330 SMITH STREET,-73.995486,40.680379
14K059,K059,P.S. 059 William Floyd,DOE,General Academic,Elementary,Open,211 THROOP AVENUE,-73.943279,40.697619
17K061,K061,M.S. 061 Dr. Gladstone H. Atwell,DOE,General Academic,Junior High-Intermediate-Middle,Open,400 EMPIRE BOULEVARD,-73.949198,40.663605
20K062,K062,J.H.S. 062 Ditmas,DOE,General Academic,Junior High-Intermediate-Middle,Open,700 CORTELYOU ROAD,-73.971153,40.638087
19K065,K065,P.S. 065,DOE,General Academic,Elementary,Open,696 JAMAICA AVENUE,-73.878353,40.686534
18K066,K066,P.S. 66,DOE,General Academic,K-8,Open,845 EAST  96 STREET,-73.907064,40.648749
13K067,K067,P.S. 067 Charles A. Dorsey,DOE,General Academic,Elementary,Open,51 SAINT EDWARDS STREET,-73.977674,40.695339
18K068,K068,I.S. 068 Isaac Bildersee,DOE,General Academic,Junior High-Intermediate-Middle,Open,956 EAST  82 STREET,-73.911215,40.635388
20K069,K069,P.S. 69 Vincent D. Grippo School,DOE,General Academic,Elementary,Open,6302 9TH AVENUE,-74.009752,40.632392
20K069,K069,P.S. 69 Vincent D. Grippo School,DOE,General Academic,Elementary,Open,6302 9TH AVENUE,-74.009752,40.632392
14K071,K071,Juan Morel Campos Secondary School,DOE,General Academic,Secondary School,Open,215 HEYWARD STREET,-73.953304,40.703996
19K072,K072,P.S./I.S. 072 Annette P Goldman,DOE,General Academic,K-8,Closed,605 SHEPHERD AVENUE,-73.879131,40.669358
23K073,K073,P.S. 073 Thomas S. Boyland,DOE,General Academic,K-8,Closed,251 MCDOUGAL STREET,-73.910719,40.680679
32K075,K075,P.S. 075 Mayda Cortiella,DOE,General Academic,Elementary,Open,95 GROVE STREET,-73.921336,40.693261
75K077,K077,P.S. K077,DOE,Special Education,K-12 all grades,Open,62 PARK PLACE,-73.976648,40.678809
22K078,K078,J.H.S. 078 Roy H. Mann,DOE,General Academic,Junior High-Intermediate-Middle,Open,1420 EAST  68 STREET,-73.912914,40.620537
16K081,K081,P.S. 081 Thaddeus Stevens,DOE,General Academic,Elementary,Open,990 DEKALB AVENUE,-73.935123,40.692866
14K084,K084,P.S. 084 Jose De Diego,DOE,General Academic,K-8,Open,250 BERRY STREET,-73.963808,40.715089
32K086,K086,P.S. 086 The Irvington,DOE,General Academic,Elementary,Open,220 IRVING AVENUE,-73.917804,40.700595
15K088,K088,J.H.S. 088 Peter Rouget,DOE,General Academic,Junior High-Intermediate-Middle,Open,544 7TH AVENUE,-73.988743,40.660805
19K089,K089,P.S. 089 Cypress Hills,DOE,General Academic,K-8,Open,265 WARWICK STREET,-73.886712,40.677707
21K090,K090,P.S. 90 Edna Cohen School,DOE,General Academic,Elementary,Open,2840 WEST  12 STREET,-73.980387,40.578192
17K091,K091,P.S. 091 The Albany Avenue School,DOE,General Academic,Elementary,Open,532 ALBANY AVENUE,-73.940707,40.661806
17K092,K092,P.S. 092 Adrian Hegeman,DOE,General Academic,Elementary,Open,601 PARKSIDE AVENUE,-73.95381,40.656276
13K093,K093,P.S. 093 William H. Prescott,DOE,General Academic,Elementary,Open,31 NEW YORK AVENUE,-73.946381,40.679079
15K094,K094,P.S. 094 The Henry Longfellow,DOE,General Academic,Elementary,Open,5010 6 AVENUE,-74.008795,40.64373
21K095,K095,P.S. 095 The Gravesend,DOE,General Academic,K-8,Open,345 VAN SICKLEN STREET,-73.974664,40.595996
21K096,K096,I.S. 096 Seth Low,DOE,General Academic,Junior High-Intermediate-Middle,Open,99 AVENUE P,-73.984985,40.608135
21K097,K097,P.S. 97 The Highlawn,DOE,General Academic,Elementary,Open,1855 STILLWELL AVENUE,-73.98557,40.601191
21K098,K098,I.S. 98 Bay Academy,DOE,General Academic,Junior High-Intermediate-Middle,Open,1401 EMMONS AVENUE,-73.954047,40.583893
21K099,K099,P.S. 099 Isaac Asimov,DOE,General Academic,K-8,Open,1120 EAST  10 STREET,-73.966031,40.621474
21K100,K100,P.S. 100 The Coney Island School,DOE,General Academic,Elementary,Open,2951 WEST  3 STREET,-73.97083,40.577591
21K101,K101,P.S. 101 The Verrazano,DOE,General Academic,Elementary,Open,2360 BENSON AVENUE,-73.991962,40.597379
20K102,K102,P.S. 102 The Bayview,DOE,General Academic,Elementary,Open,211 72 STREET,-74.028758,40.634318
13K103,K103,Satellite Three,DOE,General Academic,Junior High-Intermediate-Middle,Closed,170 GATES AVENUE,-73.960536,40.684286
20K104,K104,P.S./I.S. 104 The Fort Hamilton School,DOE,General Academic,K-8,Open,9115 5 AVENUE,-74.028492,40.618077
20K105,K105,P.S. 105 The Blythebourne,DOE,General Academic,Elementary,Open,1031 59 STREET,-74.003635,40.63332
32K106,K106,P.S. 106 Edward Everett Hale,DOE,General Academic,Elementary,Open,1328 PUTNAM AVENUE,-73.913378,40.693318
15K107,K107,P.S. 107 John W. Kimball,DOE,General Academic,Elementary,Open,1301 8 AVENUE,-73.981181,40.662945
19K108,K108,P.S. 108 Sal Abbracciamento,DOE,General Academic,Elementary,Open,200 LINWOOD STREET,-73.884348,40.681295
22K109,K109,P.S. 109,DOE,General Academic,K-8,Open,1001 EAST  45 STREET,-73.933099,40.635842
22K109,K109,P.S. 109,DOE,General Academic,K-8,Open,1001 EAST  45 STREET,-73.933099,40.635842
14K110,K110,P.S. 110 The Monitor,DOE,General Academic,Elementary,Open,124 MONITOR STREET,-73.941926,40.723743
20K112,K112,P.S. 112 Lefferts Park,DOE,General Academic,Elementary,Open,7115 15 AVENUE,-74.000565,40.619417
13K113,K113,M.S. 113 Ronald Edmonds Learning Center,DOE,General Academic,Junior High-Intermediate-Middle,Open,300 ADELPHI STREET,-73.971474,40.688769
18K114,K114,P.S. 114 Ryder Elementary,DOE,General Academic,Elementary,Open,1077 REMSEN AVENUE,-73.90788,40.642684
18K115,K115,P.S. 115 Daniel Mucatel School,DOE,General Academic,Elementary,Open,1500 EAST  92 STREET,-73.897896,40.634861
32K116,K116,P.S. 116 Elizabeth L Farrell,DOE,General Academic,Elementary,Open,515 KNICKERBOCKER AVENUE,-73.916563,40.698077
13K117,K117,J.H.S. 117 Francis Scott Key,DOE,General Academic,Junior High-Intermediate-Middle,Closed,300 WILLOUGHBY AVENUE,-73.9588,40.6926
15K118,K118,The Maurice Sendak Community School,DOE,General Academic,Elementary,Open,211 8TH STREET,-73.987602,40.671145
22K119,K119,P.S. 119 Amersfort,DOE,General Academic,Elementary,Open,3829 AVENUE K,-73.938733,40.626038
14K120,K120,P.S. 120 Carlos Tapia,DOE,General Academic,Elementary,Open,18 BEAVER STREET,-73.937888,40.700819
21K121,K121,P.S. 121 Nelson A. Rockefeller,DOE,General Academic,K-8,Open,5301 20 AVENUE,-73.978472,40.622671
17K122,K122,Pathways in Technology Early College High School (,DOE,Career Technical,High school,Open,150 ALBANY AVENUE,-73.939282,40.675905
32K123,K123,P.S. 123 Suydam,DOE,General Academic,Elementary,Open,100 IRVING AVENUE,-73.922388,40.704076
15K124,K124,P.S. 124 Silas B. Dutcher,DOE,General Academic,Elementary,Open,515 4 AVENUE,-73.99062,40.667464
84K125,K125,Success Academy Charter School - Bed-Stuy 2,Charter,General Academic,Elementary,Open,211 THROOP AVENUE,-73.943279,40.697619
14K126,K126,John Ericsson Middle School 126,DOE,General Academic,Junior High-Intermediate-Middle,Open,424 LEONARD STREET,-73.947932,40.719818
20K127,K127,P.S. 127 Mckinley Park,DOE,General Academic,Elementary,Open,7805 7 AVENUE,-74.018429,40.623687
21K128,K128,P.S. 128 Bensonhurst,DOE,General Academic,Elementary,Open,2075 84 STREET,-73.995084,40.60498
84K129,K129,Success Academy Charter School - Cobble Hill,Charter,General Academic,K-8,Open,284 BALTIC STREET,-73.993293,40.685006
15K130,K130,P.S. 130 The Parkside,DOE,General Academic,Elementary,Open,70 OCEAN PARKWAY,-73.976053,40.648924
15K131,K131,P.S. 131 Brooklyn,DOE,General Academic,Elementary,Open,4305 FT HAMILTON PARKWAY,-73.993247,40.640728
14K132,K132,P.S. 132 The Conselyea School,DOE,General Academic,Elementary,Open,320 MANHATTAN AVENUE,-73.945663,40.714772
13K133,K133,P.S. 133 William A. Butler,DOE,General Academic,Elementary,Open,610 BALTIC STREET,-73.980455,40.679916
22K134,K134,P.S. K134,DOE,General Academic,Elementary,Open,4001 18 AVENUE,-73.97318,40.632145
18K135,K135,P.S. 135 Sheldon A. Brookner,DOE,General Academic,Elementary,Open,684 LINDEN BOULEVARD,-73.932949,40.653093
15K136,K136,I.S. 136 Charles O. Dewey,DOE,General Academic,Junior High-Intermediate-Middle,Open,4004 4 AVENUE,-74.007596,40.652127
23K137,K137,P.S./I.S. 137 Rachel Jean Mitchell,DOE,General Academic,Elementary,Open,121 SARATOGA AVENUE,-73.916641,40.682248
17K138,K138,P.S. 138 Brooklyn,DOE,General Academic,K-8,Open,760 PROSPECT PLACE,-73.951559,40.673943
17K138,K138,P.S. 138 Brooklyn,DOE,General Academic,K-8,Open,760 PROSPECT PLACE,-73.951559,40.673943
22K139,K139,P.S. 139 Alexine A. Fenty,DOE,General Academic,Elementary,Open,330 RUGBY ROAD,-73.965862,40.64134
75K140,K140,P.S. K140,DOE,Special Education,K-8,Open,141 MACON STREET,-73.9456,40.68192
75K141,K141,P.S. K141,DOE,Special Education,K-12 all grades,Open,655 PARKSIDE AVENUE,-73.951575,40.656423
15K142,K142,JHS 142,DOE,General Academic,Junior High-Intermediate-Middle,Closed,610 HENRY STREET,-74.0014,40.6801
16K143,K143,M.S. 143 Performing & Fine Arts,DOE,General Academic,Junior High-Intermediate-Middle,Closed,800 GATES AVENUE,-73.932,40.6883
32K145,K145,P.S. 145 Andrew Jackson,DOE,General Academic,Elementary,Open,100 NOLL STREET,-73.932388,40.701107
15K146,K146,"The Brooklyn New School, P.S. 146",DOE,General Academic,Elementary,Open,610 HENRY STREET,-74.002022,40.679462
14K147,K147,P.S. 147 Isaac Remsen,DOE,General Academic,Elementary,Open,325 BUSHWICK AVENUE,-73.93879,40.705005
19K149,K149,P.S. 149 Danny Kaye,DOE,General Academic,Elementary,Open,700 SUTTER AVENUE,-73.89276,40.669361
23K150,K150,P.S. 150 Christopher,DOE,General Academic,Elementary,Open,364 SACKMAN STREET,-73.90514,40.668768
32K151,K151,P.S. 151 Lyndon B. Johnson,DOE,General Academic,Elementary,Open,763 KNICKERBOCKER AVENUE,-73.908242,40.693432
22K152,K152,School of Science & Technology,DOE,General Academic,Elementary,Open,725 EAST  23 STREET,-73.954269,40.632619
22K152,K152,School of Science & Technology,DOE,General Academic,Elementary,Open,725 EAST  23 STREET,-73.954269,40.632619
21K153,K153,P.S. 153 Homecrest,DOE,General Academic,Elementary,Open,1970 HOMECREST AVENUE,-73.960027,40.601179
15K154,K154,The Windsor Terrace School,DOE,General Academic,Elementary,Open,1625 11 AVENUE,-73.975967,40.657002
23K155,K155,P.S./ I.S. 155 Nicholas Herkimer,DOE,General Academic,K-8,Open,1355 HERKIMER STREET,-73.908682,40.677634
23K156,K156,P.S. 156 Waverly,DOE,General Academic,Elementary,Open,104 SUTTER AVENUE,-73.91788,40.665553
14K157,K157,P.S./I.S. 157 The Benjamin Franklin Health & Scien,DOE,General Academic,K-8,Open,850 KENT AVENUE,-73.959999,40.695397
19K158,K158,P.S. 158 Warwick,DOE,General Academic,Elementary,Open,400 ASHFORD STREET,-73.885214,40.67259
19K159,K159,P.S. 159 Isaac Pitkin,DOE,General Academic,Elementary,Open,2781 PITKIN AVENUE,-73.869705,40.676111
20K160,K160,P.S. 160 William T. Sampson,DOE,General Academic,Elementary,Open,5105 Fort Hamilton Parkway,-73.999045,40.636932
17K161,K161,P.S. 161 The Crown,DOE,General Academic,Elementary,Open,330 CROWN STREET,-73.949243,40.665757
32K162,K162,J.H.S. 162 The Willoughby,DOE,General Academic,Junior High-Intermediate-Middle,Open,1390 WILLOUGHBY AVENUE,-73.919643,40.706816
20K163,K163,P.S. 163 Bath Beach,DOE,General Academic,K-8,Open,109 BAY 14TH STREET,-74.007469,40.606739
20K164,K164,P.S. 164 Caesar Rodney,DOE,General Academic,Elementary,Open,4211 14 AVENUE,-73.985739,40.637101
23K165,K165,P.S. 165 Ida Posner,DOE,General Academic,Elementary,Open,76 LOTT AVENUE,-73.910938,40.657061
19K166,K166,J.H.S. 166 George Gershwin,DOE,General Academic,Junior High-Intermediate-Middle,Closed,800 VAN SICLEN AVE,-73.885704,40.659934
17K167,K167,P.S. 167 The Parkway,DOE,General Academic,Elementary,Closed,1025 EASTERN PARKWAY,-73.934316,40.669557
32K168,K168,The Brooklyn School for Math and Research,DOE,General Academic,High school,Open,400 IRVING AVENUE,-73.911751,40.696457
15K169,K169,P.S. 169 Sunset Park,DOE,General Academic,Elementary,Open,4305 7 AVENUE,-74.0017,40.645825
20K170,K170,Ralph A. Fabrizio School,DOE,General Academic,Elementary,Open,619 72ND STREET,-74.018719,40.630373
20K170,K170,Ralph A. Fabrizio School,DOE,General Academic,Elementary,Open,619 72ND STREET,-74.018719,40.630373
19K171,K171,I.S. 171 Abraham Lincoln,DOE,General Academic,Junior High-Intermediate-Middle,Open,528 RIDGEWOOD AVENUE,-73.869434,40.685852
15K172,K172,P.S. 172 Beacon School of Excellence,DOE,General Academic,Elementary,Open,825 4 AVENUE,-74.000191,40.657682
19K174,K174,P.S. 174 Dumont,DOE,General Academic,K-8,Closed,574 DUMONT AVENUE,-73.897604,40.665446
20K176,K176,P.S. 176 Ovington,DOE,General Academic,Elementary,Open,1225 69 STREET,-74.005205,40.624835
21K177,K177,P.S. 177 The Marlboro,DOE,General Academic,Elementary,Open,346 AVENUE P,-73.974425,40.608169
23K178,K178,P.S. 178 Saint Clair Mckelway,DOE,General Academic,K-8,Open,2163 DEAN STREET,-73.915337,40.67538
20K179,K179,P.S. 179 Kensington,DOE,General Academic,Elementary,Open,202 AVENUE C,-73.97726,40.640127
20K180,K180,The SEEALL Academy,DOE,General Academic,K-8,Open,5601 16 AVENUE,-73.98925,40.626454
17K181,K181,P.S. 181 Brooklyn,DOE,General Academic,K-8,Open,1023 NEW YORK AVENUE,-73.945883,40.648217
84K182,K182,Success Academy Charter School - Williamsburg,Charter,General Academic,Elementary,Open,183 SOUTH  3 STREET,-73.960137,40.711915
23K183,K183,P.S. 183 Daniel Chappie James,DOE,General Academic,K-8,Closed,76 RIVERDALE AVENUE,-73.9139,40.6602
23K184,K184,P.S. 184 Newport,DOE,General Academic,K-8,Open,273 NEWPORT STREET,-73.905004,40.660385
20K185,K185,P.S. 185 Walter Kassenbrock,DOE,General Academic,Elementary,Open,8601 RIDGE BOULEVARD,-74.033429,40.623598
20K186,K186,P.S. 186 Dr. Irving A Gladstone,DOE,General Academic,Elementary,Open,7601 19 AVENUE,-73.994258,40.610917
20K187,K187,The Christa McAuliffe School\I.S. 187,DOE,General Academic,Junior High-Intermediate-Middle,Open,1171 65 STREET,-74.003883,40.627929
21K188,K188,P.S. 188 Michael E. Berdy,DOE,General Academic,Elementary,Open,3314 NEPTUNE AVENUE,-74.000489,40.576733
17K189,K189,P.S. 189 The Bilingual Center,DOE,General Academic,K-8,Open,1100 EAST NEW YORK AVENUE,-73.925435,40.665228
19K190,K190,P.S. 190 Sheffield,DOE,General Academic,Elementary,Open,590 SHEFFIELD AVENUE,-73.894877,40.662243
23K332,K332,P.S. 332 Charles H. Houston,DOE,General Academic,K-8,Closed,51 CHRISTOPHER AVENUE,-73.906018,40.672216
17K191,K191,P.S. 191 Paul Robeson,DOE,General Academic,Elementary,Open,1600 PARK PLACE,-73.924127,40.67173
20K192,K192,P.S. 192 - The Magnet School for Math and Science,DOE,General Academic,K-8,Open,4715 18 AVENUE,-73.97954,40.6288
22K193,K193,P.S. 193 Gil Hodges,DOE,General Academic,Elementary,Open,2515 AVENUE L,-73.950321,40.62208
22K194,K194,P.S. 194 Raoul Wallenberg,DOE,General Academic,Elementary,Open,3117 AVENUE W,-73.934163,40.598069
22K195,K195,P.S. 195 Manhattan Beach,DOE,General Academic,Elementary,Open,131 IRWIN STREET,-73.943498,40.580161
14K196,K196,P.S. 196 Ten Eyck,DOE,General Academic,Elementary,Open,207 BUSHWICK AVENUE,-73.939385,40.708804
22K197,K197,P.S. 197 - The Kings Highway Academy,DOE,General Academic,Elementary,Open,1599 EAST  22 STREET,-73.951398,40.612339
22K198,K198,P.S. 198 Brooklyn,DOE,General Academic,Elementary,Open,4105 FARRAGUT ROAD,-73.937083,40.637601
21K199,K199,P.S. 199 Frederick Wachtel,DOE,General Academic,Elementary,Open,1100 ELM AVENUE,-73.963026,40.61631
20K200,K200,P.S. 200 Benson School,DOE,General Academic,Elementary,Open,1940 BENSON AVENUE,-74.001915,40.602809
20K201,K201,J.H.S. 201 The Dyker Heights,DOE,General Academic,Junior High-Intermediate-Middle,Open,8010 12 AVENUE,-74.013749,40.619043
19K202,K202,P.S. 202 Ernest S. Jenkyns,DOE,General Academic,Elementary,Open,982 HEGEMAN AVENUE,-73.876084,40.665817
22K203,K203,P.S. 203 Floyd Bennett School,DOE,General Academic,Elementary,Open,5101 AVENUE M,-73.925732,40.622108
20K204,K204,P.S. 204 Vince Lombardi,DOE,General Academic,Elementary,Open,8101 15 AVENUE,-74.006137,40.613535
20K205,K205,P.S. 205 Clarion,DOE,General Academic,Elementary,Open,6701 20 AVENUE,-73.986792,40.614737
22K206,K206,P.S. 206 Joseph F Lamb,DOE,General Academic,K-8,Open,2200 GRAVESEND NECK ROAD,-73.948453,40.596876
22K207,K207,P.S. 207 Elizabeth G. Leary,DOE,General Academic,K-8,Open,4011 FILLMORE AVENUE,-73.930485,40.613981
18K208,K208,P.S. 208 Elsa Ebeling,DOE,General Academic,Elementary,Open,4801 AVENUE D,-73.930898,40.6427
21K209,K209,P.S. 209 Margaret Mead,DOE,General Academic,K-8,Open,2609 EAST  7 STREET,-73.961191,40.5868
18K211,K211,I.S. 211 John Wilson,DOE,General Academic,Junior High-Intermediate-Middle,Open,1001 EAST 100 STREET,-73.895224,40.642931
21K212,K212,P.S. 212 Lady Deborah Moody,DOE,General Academic,Elementary,Open,87 BAY  49 STREET,-73.985368,40.587612
19K213,K213,P.S. 213 New Lots,DOE,General Academic,Elementary,Open,580 HEGEMAN AVENUE,-73.889968,40.659845
19K214,K214,P.S. 214 Michael Friedsam,DOE,General Academic,Elementary,Open,2944 PITKIN AVENUE,-73.862961,40.675881
21K215,K215,P.S. 215 Morris H. Weiss,DOE,General Academic,Elementary,Open,415 AVENUE S,-73.970171,40.602722
21K216,K216,P.S. 216 Arturo Toscanini,DOE,General Academic,Elementary,Open,350 AVENUE X,-73.969647,40.59
22K217,K217,P.S. 217 Colonel David Marcus School,DOE,General Academic,Elementary,Open,1100 NEWKIRK AVENUE,-73.966442,40.633482
19K218,K218,J.H.S. 218 James P. Sinnott,DOE,General Academic,Junior High-Intermediate-Middle,Open,370 FOUNTAIN AVENUE,-73.874537,40.67002
18K219,K219,P.S. 219 Kennedy-King,DOE,General Academic,Elementary,Open,1060 CLARKSON AVENUE,-73.922296,40.658834
20K220,K220,J.H.S. 220 John J. Pershing,DOE,General Academic,Junior High-Intermediate-Middle,Open,4812 9TH AVENUE,-74.00125,40.640997
17K221,K221,P.S. 221 Toussaint L'Ouverture,DOE,General Academic,Elementary,Open,791 EMPIRE BOULEVARD,-73.935753,40.663964
22K222,K222,P.S. 222 Katherine R. Snyder,DOE,General Academic,Elementary,Open,3301 QUENTIN ROAD,-73.939205,40.614005
20K223,K223,J.H.S. 223 The Montauk,DOE,General Academic,Junior High-Intermediate-Middle,Open,4200 16 AVENUE,-73.982424,40.6351
19K224,K224,P.S. 224 Hale A. Woodruff,DOE,General Academic,Elementary,Open,757 WORTMAN AVENUE,-73.866542,40.664143
21K225,K225,P.S. K225 - The Eileen E. Zaglin,DOE,General Academic,K-8,Open,1075 OCEAN VIEW AVENUE,-73.955856,40.58026
21K226,K226,P.S. 226 Alfred De B. Mason,DOE,General Academic,K-8,Open,6006 23 AVENUE,-73.977099,40.615405
20K227,K227,J.H.S. 227 Edward B. Shallow,DOE,General Academic,Junior High-Intermediate-Middle,Open,6500 16 AVENUE,-73.995961,40.622102
21K228,K228,I.S. 228 David A. Boody,DOE,General Academic,Junior High-Intermediate-Middle,Open,228 AVENUE S,-73.976801,40.60066
20K229,K229,P.S. 229 Dyker,DOE,General Academic,K-8,Open,1400 BENSON AVENUE,-74.013585,40.610331
15K230,K230,P.S. 230 Doris L. Cohen,DOE,General Academic,Elementary,Open,1 ALBEMARLE ROAD,-73.980515,40.645609
75K231,K231,P.S. K231,DOE,Special Education,K-8,Open,5601 16 AVENUE,-73.98925,40.626454
18K232,K232,I.S. 232 The Winthrop,DOE,General Academic,Junior High-Intermediate-Middle,Closed,905 WINTHROP STREET,-73.929,40.6584
18K233,K233,P.S. 233 Langston Hughes,DOE,General Academic,Elementary,Open,9301 AVENUE B,-73.914282,40.651642
21K400,K400,Lafayette High School,DOE,General Academic,High school,Closed,2630 BENSON AVENUE,-73.986313,40.593028
22K234,K234,J.H.S. 234 Arthur W. Cunningham,DOE,General Academic,Junior High-Intermediate-Middle,Open,1875 EAST  17 STREET,-73.955217,40.604447
18K235,K235,P.S. 235 Janice Marie Knight School,DOE,General Academic,K-8,Open,525 LENOX ROAD,-73.940922,40.655337
22K236,K236,P.S. 236 Mill Basin,DOE,General Academic,Elementary,Open,6302 AVENUE U,-73.912005,40.615494
21K238,K238,P.S. 238 Anne Sullivan,DOE,General Academic,K-8,Open,1633 EAST  8 STREET,-73.964586,40.608801
21K239,K239,Mark Twain I.S. 239 for the Gifted & Talented,DOE,General Academic,Junior High-Intermediate-Middle,Open,2401 NEPTUNE AVENUE,-73.992447,40.57864
22K240,K240,Andries Hudde,DOE,General Academic,Junior High-Intermediate-Middle,Open,2500 NOSTRAND AVENUE,-73.946836,40.623788
17K241,K241,P.S. 241 Emma L. Johnston,DOE,General Academic,Elementary,Open,976 PRESIDENT STREET,-73.960924,40.668913
16K243,K243,P.S. 243K- The Weeksville School,DOE,General Academic,Elementary,Open,1580 DEAN STREET,-73.935093,40.675675
18K244,K244,P.S. 244 Richard R. Green,DOE,General Academic,Elementary,Open,5404 TILDEN AVENUE,-73.925592,40.647851
22K245,K245,P.S. 245,DOE,General Academic,Elementary,Open,249 EAST 17TH STREET,-73.962743,40.644927
17K246,K246,M.S. 246 Walt Whitman,DOE,General Academic,Junior High-Intermediate-Middle,Open,72 VERONICA PLACE,-73.95348,40.648352
20K247,K247,P.S. 247 Brooklyn,DOE,General Academic,Elementary,Open,7000 21 AVENUE,-73.987195,40.612247
17K249,K249,P.S. 249 The Caton,DOE,General Academic,Elementary,Open,18 MARLBOROUGH ROAD,-73.966456,40.649509
14K250,K250,P.S. 250 George H. Lindsay,DOE,General Academic,Elementary,Open,108 MONTROSE AVENUE,-73.945659,40.706708
79K565,K565,HS Of Redirection,DOE,Alternative,High school,Closed,226 BRISTOL STREET,-73.9117,40.6659
22K251,K251,P.S. 251 Paerdegat,DOE,General Academic,Elementary,Open,1037 EAST  54 STREET,-73.923894,40.63195
18K252,K252,I.S. 252 Arthur S. Somers,DOE,General Academic,Junior High-Intermediate-Middle,Closed,1084 LENOX ROAD,-73.9201,40.6583
21K253,K253,P.S. 253,DOE,General Academic,Elementary,Open,601 OCEANVIEW AVENUE,-73.961962,40.580237
22K254,K254,P.S. 254 Dag Hammarskjold,DOE,General Academic,Elementary,Open,1801 AVENUE Y,-73.95155,40.591103
22K255,K255,P.S. 255 Barbara Reing School,DOE,General Academic,Elementary,Open,1866 EAST  17 STREET,-73.955891,40.604461
13K256,K256,P.S. 256 Benjamin Banneker,DOE,General Academic,Elementary,Open,114 KOSCIUSZKO STREET,-73.94961,40.690595
14K257,K257,P.S. 257 John F. Hylan,DOE,General Academic,Elementary,Open,60 COOK STREET,-73.941345,40.702759
13K258,K258,J.H.S. 258 David Ruggles,DOE,General Academic,Junior High-Intermediate-Middle,Closed,141 MACON STREET,-73.9454,40.6816
20K259,K259,J.H.S. 259 William McKinley,DOE,General Academic,Junior High-Intermediate-Middle,Open,7305 FT HAMILTON PARKWAY,-74.014633,40.626089
19K260,K260,P.S. 260 Breuckelen,DOE,General Academic,Elementary,Closed,875 WILLIAMS AVENUE,-73.893294,40.653368
15K261,K261,P.S. 261 Philip Livingston,DOE,General Academic,Elementary,Open,314 PACIFIC STREET,-73.988667,40.687218
16K262,K262,P.S. 262 El Hajj Malik El Shabazz Elementary Schoo,DOE,General Academic,Elementary,Open,500 MACON STREET,-73.930132,40.682949
20K264,K264,P.S. 264 Bay Ridge Elementary School For The Arts,DOE,General Academic,Elementary,Open,371 89th Street,-74.029444,40.621025
13K265,K265,Dr. Susan S. McKinney Secondary School of the Arts,DOE,General Academic,Secondary School,Open,101 PARK AVENUE,-73.976104,40.697177
13K266,K266,M.S. K266 - Park Place Community Middle School,DOE,General Academic,Junior High-Intermediate-Middle,Open,62 PARK PLACE,-73.976648,40.678809
16K267,K267,"M.S. 267 Math, Science & Technology",DOE,General Academic,Junior High-Intermediate-Middle,Open,800 GATES AVENUE,-73.932066,40.68797
18K268,K268,P.S. 268 Emma Lazarus,DOE,General Academic,Elementary,Open,133 EAST  53 STREET,-73.92756,40.657421
22K269,K269,P.S. 269 Nostrand,DOE,General Academic,Elementary,Closed,1957 NOSTRAND AVENUE,-73.947672,40.637625
13K270,K270,P.S. 270 Johann DeKalb,DOE,General Academic,Elementary,Open,241 EMERSON PLACE,-73.961134,40.691275
23K271,K271,I.S. 271 John M. Coleman,DOE,General Academic,Junior High-Intermediate-Middle,Closed,121 SARATOGA AVENUE,-73.9171,40.6827
18K272,K272,P.S. 272 Curtis Estabrook,DOE,General Academic,Elementary,Open,101-24 SEAVIEW AVENUE,-73.886373,40.635542
19K273,K273,P.S. 273 Wortman,DOE,General Academic,Elementary,Open,923 JEROME STREET,-73.879276,40.6585
32K274,K274,P.S. 274 Kosciusko,DOE,General Academic,Elementary,Open,800 BUSHWICK AVENUE,-73.92818,40.694179
23K275,K275,IS 275 Thelma J. Hamilton,DOE,General Academic,Junior High-Intermediate-Middle,Closed,985 ROCKAWAY AVENUE,-73.9074,40.6566
18K276,K276,P.S. 276 Louis Marshall,DOE,General Academic,Elementary,Open,1070 EAST  83 STREET,-73.908436,40.634005
22K277,K277,P.S. 277 Gerritsen Beach,DOE,General Academic,Elementary,Open,2529 GERRITSEN AVENUE,-73.92785,40.595798
22K278,K278,J.H.S. 278 Marine Park,DOE,General Academic,Junior High-Intermediate-Middle,Open,1925 STUART STREET,-73.938721,40.606745
18K279,K279,P.S. 279 Herman Schreiber,DOE,General Academic,Elementary,Open,1070 EAST 104 STREET,-73.892797,40.644134
21K280,K280,IS 280 Brooklyn Studio School,DOE,General Academic,Junior High-Intermediate-Middle,Closed,8310 21ST AVENUE,-73.9944,40.6049
21K281,K281,I.S. 281 Joseph B Cavallaro,DOE,General Academic,Junior High-Intermediate-Middle,Open,8787 24 AVENUE,-73.993565,40.594648
13K282,K282,P.S. 282 Park Slope,DOE,General Academic,K-8,Open,180 6 AVENUE,-73.977983,40.676649
23K284,K284,"The Gregory Jocko Jackson School of Sports, Art, a",DOE,General Academic,K-8,Open,213 OSBORN STREET,-73.907634,40.666942
18K285,K285,I.S. 285 Meyer Levin,DOE,General Academic,Junior High-Intermediate-Middle,Open,5909 BEVERLY ROAD,-73.920784,40.647818
18K285,K285,I.S. 285 Meyer Levin,DOE,General Academic,Junior High-Intermediate-Middle,Open,5909 BEVERLY ROAD,-73.920784,40.647818
13K287,K287,P.S. 287 Bailey K. Ashford,DOE,General Academic,Elementary,Open,50 NAVY STREET,-73.98112,40.697856
21K288,K288,P.S. 288 The Shirley Tanyhill,DOE,General Academic,K-8,Open,2950 WEST  25 STREET,-73.992393,40.574029
17K289,K289,P.S. 289 George V. Brower,DOE,General Academic,Elementary,Open,900 ST MARKS AVENUE,-73.942401,40.674244
19K290,K290,P.S. 290 Juan Morel Campos,DOE,General Academic,Elementary,Open,135 SCHENCK AVENUE,-73.889375,40.678182
32K291,K291,J.H.S. 291 Roland Hayes,DOE,General Academic,Junior High-Intermediate-Middle,Open,231 PALMETTO STREET,-73.915217,40.695875
19K292,K292,J.H.S. 292 Margaret S. Douglas,DOE,General Academic,Junior High-Intermediate-Middle,Open,301 VERMONT STREET,-73.893319,40.671601
19K292,K292,J.H.S. 292 Margaret S. Douglas,DOE,General Academic,Junior High-Intermediate-Middle,Open,301 VERMONT STREET,-73.893319,40.671601
15K295,K295,P.S. 295,DOE,General Academic,Elementary,Open,330 18 STREET,-73.988743,40.660805
32K296,K296,I.S. 296 - The Anna Gonzalez Community School,DOE,General Academic,Junior High-Intermediate-Middle,Closed,125 COVERT STREET,-73.910589,40.688647
14K297,K297,P.S. 297 Abraham Stockton,DOE,General Academic,Elementary,Open,700 PARK AVENUE,-73.948166,40.697377
23K298,K298,P.S. 298 Dr. Betty Shabazz,DOE,General Academic,Elementary,Open,85 WATKINS STREET,-73.907718,40.671015
32K299,K299,P.S. 299 Thomas Warren Field,DOE,General Academic,Elementary,Open,88 WOODBINE STREET,-73.917899,40.690755
13K301,K301,Satellite East Middle School,DOE,General Academic,Junior High-Intermediate-Middle,Open,31 NEW YORK AVENUE,-73.946381,40.679079
19K302,K302,J.H.S. 302 Rafael Cordero,DOE,General Academic,Junior High-Intermediate-Middle,Closed,350 LINWOOD STREET,-73.884211,40.677112
21K303,K303,I.S. 303 Herbert S. Eisenberg,DOE,General Academic,Junior High-Intermediate-Middle,Open,501 WEST AVENUE,-73.972009,40.582518
21K303,K303,I.S. 303 Herbert S. Eisenberg,DOE,General Academic,Junior High-Intermediate-Middle,Open,501 WEST AVENUE,-73.972009,40.582518
16K304,K304,P.S. 304 Casimir Pulaski,DOE,General Academic,Elementary,Closed,280 HART STREET,-73.9408,40.6941
13K305,K305,P.S. 305 Dr. Peter Ray,DOE,General Academic,Elementary,Open,344 MONROE STREET,-73.94573,40.685653
19K306,K306,P.S. 306 Ethan Allen,DOE,General Academic,Elementary,Open,970 VERMONT STREET,-73.88662,40.65534
13K307,K307,P.S. 307 Daniel Hale Williams,DOE,General Academic,Elementary,Open,209 YORK STREET,-73.981599,40.701789
16K308,K308,P.S. 308 Clara Cardwell,DOE,General Academic,K-8,Open,616 QUINCY STREET,-73.935509,40.688323
16K309,K309,P.S. 309 The George E. Wibecan Preparatory Academy,DOE,General Academic,Elementary,Open,794 MONROE STREET,-73.924422,40.6881
20K310,K310,The School For Future Leaders,DOE,General Academic,Elementary,Open,942 62ND STREET,-74.007533,40.632143
19K311,K311,Essence School,DOE,General Academic,Junior High-Intermediate-Middle,Closed,590 SHEFFIELD AVENUE,-73.894877,40.662243
22K312,K312,P.S. 312 Bergen Beach,DOE,General Academic,Elementary,Open,7103 AVENUE T,-73.909554,40.622442
13K313,K313,Dock Street School for STEAM Studies,DOE,General Academic,Junior High-Intermediate-Middle,Open,19 DOCK STREET,-73.992076,40.702952
22K315,K315,P.S. K315,DOE,General Academic,Elementary,Open,2310 GLENWOOD ROAD,-73.954269,40.632619
22K315,K315,P.S. K315,DOE,General Academic,Elementary,Open,2310 GLENWOOD ROAD,-73.954269,40.632619
17K316,K316,P.S. 316 Elijah Stroud,DOE,General Academic,Elementary,Open,750 CLASSON AVENUE,-73.961418,40.674685
14K317,K317,The Greenpoint Community Middle School At The John,DOE,General Academic,Junior High-Intermediate-Middle,"Initiated, never opened",424 LEONARD STREET,-73.947932,40.719818
14K318,K318,I.S. 318 Eugenio Maria De Hostos,DOE,General Academic,Junior High-Intermediate-Middle,Open,101 WALTON STREET,-73.948771,40.703034
14K319,K319,P.S. 319,DOE,General Academic,Early Childhood,Open,360 KEAP STREET,-73.953881,40.709632
15K321,K321,P.S. 321 William Penn,DOE,General Academic,Elementary,Open,180 7 AVENUE,-73.978633,40.671816
14K322,K322,Foundations Academy,DOE,General Academic,High school,Closed,70 TOMPKINS AVENUE,-73.947557,40.696698
23K323,K323,P.S./I.S. 323,DOE,General Academic,K-8,Open,210 CHESTER STREET,-73.911279,40.666187
19K325,K325,The Fresh Creek School,DOE,General Academic,Elementary,Open,875 WILLIAMS AVENUE,-73.893294,40.653368
22K326,K326,P.S. 326,DOE,General Academic,Early Childhood,Open,1800 UTICA AVENUE,-73.92825,40.628417
23K327,K327,P.S. 327 Dr. Rose B. English,DOE,General Academic,K-8,Open,111 BRISTOL STREET,-73.911788,40.668232
19K328,K328,P.S. 328 Phyllis Wheatley,DOE,General Academic,Elementary,Open,330 ALABAMA AVENUE,-73.898249,40.667985
21K329,K329,P.S. 329 Surfside,DOE,General Academic,Elementary,Open,2929 WEST  30 STREET,-73.99577,40.574666
14K330,K330,The School for the Urban Environment,DOE,General Academic,Junior High-Intermediate-Middle,Closed,70 TOMPKINS AVENUE,-73.947557,40.696698
84K333,K333,Explore Exceed Charter School,Charter,General Academic,K-8,Open,443 ST MARKS AVENUE,-73.960093,40.6771
17K334,K334,Middle School for Academic and Social Excellence,DOE,General Academic,Junior High-Intermediate-Middle,Closed,1224 PARK PLACE,-73.937601,40.67229
16K335,K335,P.S. 335 Granville T. Woods,DOE,General Academic,Elementary,Open,130 ROCHESTER AVENUE,-73.928673,40.674491
13K336,K336,Academy of Business and Community Development,DOE,General Academic,Secondary School,Closed,141 MACON STREET,-73.9456,40.68192
21K337,K337,International High School at Lafayette,DOE,General Academic,High school,Open,2630 BENSON AVENUE,-73.986313,40.593028
19K338,K338,School Of Integrated Academics And Performing Arts,DOE,General Academic,Junior High-Intermediate-Middle,"Initiated, never opened",800 VAN SICLEN AVE,-73.885704,40.659934
17K340,K340,I.S. 340,DOE,General Academic,Junior High-Intermediate-Middle,Open,227 STERLING PLACE,-73.970315,40.676357
21K344,K344,Rachel Carson High School for Coastal Studies,DOE,General Academic,High school,Open,521 WEST AVENUE,-73.972009,40.582518
21K344,K344,Rachel Carson High School for Coastal Studies,DOE,General Academic,High school,Open,521 WEST AVENUE,-73.972009,40.582518
19K345,K345,P.S. 345 Patrolman Robert Bolden,DOE,General Academic,Elementary,Open,111 BERRIMAN STREET,-73.879886,40.676207
19K346,K346,P.S. 346 Abe Stark,DOE,General Academic,Elementary,Open,1400 PENNSYLVANIA AVENUE,-73.881997,40.64664
32K347,K347,I.S. 347 School of Humanities,DOE,General Academic,Junior High-Intermediate-Middle,Open,35 STARR STREET,-73.927938,40.70081
21K348,K348,High School of Sports Management,DOE,General Academic,High school,Open,2630 BENSON AVENUE,-73.986313,40.593028
32K349,K349,"I.S. 349 Math, Science & Tech.",DOE,General Academic,Junior High-Intermediate-Middle,Open,35 STARR STREET,-73.927938,40.70081
13K350,K350,Urban Assembly School of Music and Art,DOE,General Academic,High school,Open,49 FLATBUSH AVENUE EXTENSION,-73.984528,40.69733
13K351,K351,The Urban Assembly Unison School,DOE,General Academic,Junior High-Intermediate-Middle,Open,170 GATES AVENUE,-73.960536,40.684286
17K352,K352,Ebbets Field Middle School,DOE,General Academic,Junior High-Intermediate-Middle,Open,46 MCKEEVER PLACE,-73.959484,40.665199
17K353,K353,Elijah Stroud Middle School,DOE,General Academic,Junior High-Intermediate-Middle,Open,750 CLASSON AVENUE,-73.961418,40.674685
17K354,K354,The School of Integrated Learning,DOE,General Academic,Junior High-Intermediate-Middle,Open,1224 PARK PLACE,-73.937601,40.67229
84K355,K355,Williamsburg Collegiate Charter School,Charter,General Academic,Junior High-Intermediate-Middle,Open,157 WILSON STREET,-73.962049,40.706069
84K356,K356,Achievement First Crown Heights Charter School,Charter,General Academic,K-12 all grades,Open,790 EAST NEW YORK AVENUE,-73.936313,40.662092
84K357,K357,KIPP AMP Charter School,Charter,General Academic,K-12 all grades,Open,1224 PARK PLACE,-73.937601,40.67229
84K358,K358,Achievement First East New York Charter School,Charter,General Academic,K-12 all grades,Open,557 PENNSYLVANIA AVENUE,-73.893328,40.664067
84K359,K359,The Uft Charter School,Charter,General Academic,High school,Open,800 VAN SICLEN AVE,-73.885704,40.659934
84K360,K360,Launch Expeditionary Learning Charter School,Charter,General Academic,Junior High-Intermediate-Middle,Open,1580 DEAN STREET,-73.935093,40.675675
22K361,K361,P.S. 361 East Flatbush Early Childhood School,DOE,General Academic,Elementary,Open,1957 NOSTRAND AVENUE,-73.947672,40.637625
84K362,K362,Hellenic Classical Charter School,Charter,General Academic,K-8,Open,646 FIFTH AVENUE,-73.992254,40.662985
23K363,K363,Brownsville Collaborative Middle School,DOE,General Academic,Junior High-Intermediate-Middle,Open,85 WATKINS STREET,-73.907718,40.671015
19K364,K364,I.S. 364 Gateway,DOE,General Academic,Junior High-Intermediate-Middle,Open,1426 FREEPORT LOOP,-73.881115,40.646211
23K365,K365,District 23 HS#1,DOE,General Academic,High school,"Initiated, never opened",1495 HERKIMER STREET,-73.904143,40.677528
18K366,K366,The Science And Medicine Middle School,DOE,General Academic,Junior High-Intermediate-Middle,Open,965 EAST 107TH STREET,-73.891743,40.647396
84K367,K367,Success Academy Charter School - Bed-Stuy 1,Charter,General Academic,K-8,Open,70 TOMPKINS AVENUE,-73.947557,40.696698
75K368,K368,P.S. 368,DOE,Special Education,K-12 all grades,Open,70 TOMPKINS AVENUE,-73.947557,40.696698
75K369,K369,P.S. K369 - Coy L. Cox School,DOE,Special Education,K-12 all grades,Open,383 STATE STREET,-73.983312,40.687432
75K370,K370,P.S. 370,DOE,Special Education,K-12 all grades,Open,3000 WEST 1 STREET,-73.969872,40.577709
75K371,K371,P.S. 371 - Lillian L. Rashkis,DOE,Special Education,High school,Open,355 37 STREET,-74.005168,40.654306
75K372,K372,P.S. 372 -The Children's School,DOE,Special Education,K-8,Open,512 CARROLL STREET,-73.9855,40.676198
75K373,K373,P.S. 373 - Brooklyn Transition Center,DOE,Special Education,High school,Open,185 ELLERY STREET,-73.945211,40.699214
17K375,K375,P.S. 375 Jackie Robinson School,DOE,General Academic,Elementary,Open,46 MCKEEVER PLACE,-73.959484,40.665199
32K376,K376,P.S. 376,DOE,General Academic,Elementary,Open,194 HARMAN STREET,-73.920187,40.69805
32K377,K377,P.S. 377 Alejandrina B. De Gautier,DOE,General Academic,K-8,Open,200 WOODBINE STREET,-73.915159,40.693542
15K378,K378,MS 378 Carroll Gardens C.S,DOE,General Academic,Junior High-Intermediate-Middle,Closed,610 HENRY STREET,-74.0014,40.6801
84K379,K379,Explore Excel Charter School,Charter,General Academic,K-8,Open,1077 REMSEN AVENUE,-73.90788,40.642684
14K380,K380,P.S. 380 John Wayne Elementary,DOE,General Academic,Elementary,Open,370 MARCY AVENUE,-73.953702,40.70179
22K381,K381,I. S. 381,DOE,General Academic,Junior High-Intermediate-Middle,Open,2500 NOSTRAND AVENUE,-73.946836,40.623788
17K382,K382,Academy for College Preparation and Career Explora,DOE,General Academic,Secondary School,Open,911 FLATBUSH AVENUE,-73.957173,40.649602
32K383,K383,J.H.S. 383 Philippa Schuyler,DOE,General Academic,Junior High-Intermediate-Middle,Open,1300 GREENE AVENUE,-73.919088,40.697898
32K384,K384,P.S. /I.S. 384 Frances E. Carter,DOE,General Academic,K-8,Open,242 COOPER STREET,-73.904695,40.689883
16K385,K385,"School of Business, Finance and Entrepreneurship",DOE,General Academic,Junior High-Intermediate-Middle,Closed,125 STUYVESANT AVENUE,-73.932254,40.691467
84K386,K386,Invictus Preparatory Charter School,Charter,General Academic,Junior High-Intermediate-Middle,Closed,370 FOUNTAIN AVENUE,-73.874537,40.67002
17K390,K390,M S 390 Maggie L. Walker,DOE,General Academic,Junior High-Intermediate-Middle,Closed,1224 PARK PLACE,-73.9372,40.6727
17K391,K391,I S 391 Mahalia Jackson,DOE,General Academic,Junior High-Intermediate-Middle,Closed,790 EAST NEW YORK AVENUE,-73.9364,40.6624
23K392,K392,I.S. 392,DOE,General Academic,Junior High-Intermediate-Middle,Open,104 SUTTER AVENUE,-73.91788,40.665553
16K393,K393,Frederick Douglass Academy IV Secondary School,DOE,General Academic,High school,Closed,125 STUYVESANT AVENUE,-73.932254,40.691467
17K394,K394,M.S. K394,DOE,General Academic,K-8,Open,188 ROCHESTER AVENUE,-73.928917,40.67271
84K395,K395,New Visions A.I.M. Charter High School I,Charter,Transfer School,High school,Open,1150 EAST NEW YORK AVENUE,-73.923881,40.666251
75K396,K396,P.S. K396,DOE,Special Education,K-8,Open,110 CHESTER STREET,-73.911788,40.668232
17K397,K397,P.S. 397 Foster-Laurie,DOE,General Academic,Elementary,Open,490 FENIMORE STREET,-73.946358,40.658663
17K398,K398,P.S. 398 Walter Weaver,DOE,General Academic,Elementary,Open,60 EAST  94 STREET,-73.927979,40.663388
17K399,K399,P.S. 399 Stanley Eugene Clark,DOE,General Academic,Elementary,Open,2707 ALBEMARLE ROAD,-73.951664,40.648277
23K401,K401,Christopher Avenue Community School,DOE,General Academic,Elementary,Open,51 CHRISTOPHER AVENUE,-73.906018,40.672216
32K403,K403,Academy for Excellence in Leadership,DOE,General Academic,High school,Open,400 IRVING AVENUE,-73.911751,40.696457
19K404,K404,Academy for Young Writers,DOE,General Academic,Secondary School,Open,1065 ELTON STREET,-73.874064,40.657266
22K405,K405,Midwood High School,DOE,General Academic,High school,Open,2839 BEDFORD AVENUE,-73.952356,40.632829
84K406,K406,"EMBER Charter School for Mindful Education, Innova",Charter,General Academic,K-8,Open,616 QUINCY STREET,-73.935509,40.688323
17K408,K408,Academy of Hospitality and Tourism,DOE,General Academic,High school,Open,911 FLATBUSH AVENUE,-73.957173,40.649602
19K409,K409,East New York Family Academy,DOE,General Academic,Secondary School,Open,145 PENNSYLVANIA AVENUE,-73.895976,40.673766
21K410,K410,Abraham Lincoln High School,DOE,General Academic,High school,Open,2800 OCEAN PARKWAY,-73.968733,40.582627
13K412,K412,Brooklyn Community Arts & Media High School (BCAM),DOE,General Academic,High school,Open,300 WILLOUGHBY AVENUE,-73.95818,40.692015
14K414,K414,Brooklyn Arbor Elementary School,DOE,General Academic,Elementary,Open,325 SOUTH  3 STREET,-73.954678,40.710107
18K415,K415,Samuel J. Tilden High School,DOE,General Academic,High school,Closed,5800 TILDEN AVENUE,-73.922212,40.647728
84K417,K417,Urban Dove Charter School,Charter,Transfer School,High school,Open,600 LAFAYETTE AVENUE,-73.950714,40.689574
13K419,K419,"Science Skills Center High School for Science, Tec",DOE,General Academic,High school,Open,49 FLATBUSH AVENUE EXTENSION,-73.984528,40.69733
19K420,K420,Franklin K. Lane High School,DOE,General Academic,High school,Closed,999 JAMAICA AVENUE,-73.869305,40.693002
19K422,K422,Spring Creek Community School,DOE,General Academic,Secondary School,Open,1065 ELTON STREET,-73.874064,40.657266
15K423,K423,Brooklyn Frontiers High School,DOE,Transfer School,High school,Open,112 SCHERMERHORN STREET,-73.989369,40.690007
22K425,K425,James Madison High School,DOE,General Academic,High school,Open,3787 BEDFORD AVENUE,-73.947661,40.610499
15K429,K429,Digital Arts and Cinema Technology High School,DOE,General Academic,Secondary School,Open,284 BALTIC STREET,-73.993293,40.685006
13K430,K430,Brooklyn Technical High School,DOE,General Academic,High school,Open,29 FT GREENE PLACE,-73.976435,40.688896
14K434,K434,Greenpoint High School For Engineering And Automot,DOE,General Academic,High school,"Initiated, never opened",50 BEDFORD AVENUE,-73.953328,40.721448
19K435,K435,Thomas Jefferson High School,DOE,General Academic,High school,Closed,400 PENNSYLVANIA AVENUE,-73.8947,40.6675
13K439,K439,Brooklyn International High School,DOE,General Academic,High school,Open,49 FLATBUSH AVENUE EXTENSION,-73.984528,40.69733
17K440,K440,Prospect Heights Hs,DOE,General Academic,High school,Closed,883 CLASSON AVENUE,-73.9617,40.6703
15K442,K442,M.S. 442 Carroll Gardens School for Innovation,DOE,General Academic,Junior High-Intermediate-Middle,Open,500 19 STREET,-73.983116,40.656952
15K443,K443,New Voices School of Academic & Creative Arts,DOE,General Academic,Junior High-Intermediate-Middle,Open,330 18 STREET,-73.988743,40.660805
20K445,K445,New Utrecht High School,DOE,General Academic,High school,Open,1601 80 STREET,-74.002308,40.613041
23K446,K446,Riverdale Avenue Community School,DOE,General Academic,Elementary,Open,76 RIVERDALE AVENUE,-73.913508,40.659618
15K447,K447,The Math & Science Exploratory School,DOE,General Academic,Junior High-Intermediate-Middle,Open,345 DEAN STREET,-73.980266,40.683951
15K448,K448,Brooklyn Collaborative Studies,DOE,General Academic,Secondary School,Open,610 HENRY STREET,-74.002022,40.679462
14K449,K449,"Brooklyn Latin School, The",DOE,General Academic,High school,Open,223 GRAHAM AVENUE,-73.944463,40.709765
21K451,K451,Shorefront High School Of Arts And Sciences At Joh,DOE,General Academic,High school,"Initiated, never opened",50 AVENUE X,-73.981925,40.58807
19K452,K452,Frederick Douglass Academy VIII Middle School,DOE,General Academic,Junior High-Intermediate-Middle,Open,1400 PENNSYLVANIA AVENUE,-73.881997,40.64664
22K453,K453,Academy Of Career Exploration Of Sheepshead Bay,DOE,General Academic,High school,"Initiated, never opened",3000 AVENUE X,-73.936635,40.593157
14K454,K454,The Williamsburg High School of Art and Technology,DOE,General Academic,High school,Open,223 GRAHAM AVENUE,-73.944463,40.709765
16K455,K455,Boys and Girls High School,DOE,General Academic,High school,Open,1700 FULTON STREET,-73.931604,40.678478
17K459,K459,Erasmus Campus - Science/Math,DOE,General Academic,High school,Closed,911 FLATBUSH AVENUE,-73.9585,40.6495
76K460,K460,John Jay Hs,DOE,General Academic,High school,Closed,237 7 AVENUE,-73.9793,40.6696
15K462,K462,John Jay School for Law,DOE,General Academic,High school,Open,237 7 AVENUE,-73.97858,40.669255
15K463,K463,Cyberarts Studio Academy,DOE,General Academic,High school,Open,237 7 AVENUE,-73.97858,40.669255
15K464,K464,Park Slope Collegiate,DOE,General Academic,Secondary School,Open,237 7 AVENUE,-73.97858,40.669255
21K468,K468,Kingsborough Early College School,DOE,General Academic,Secondary School,Open,2630 BENSON AVENUE,-73.986313,40.593028
17K469,K469,Erasmus Campus - Humanities,DOE,General Academic,High school,Closed,911 FLATBUSH AVENUE,-73.9585,40.6495
17K470,K470,George W Wingate Hs,DOE,General Academic,High school,Closed,600 KINGSTON AVENUE,-73.9425,40.6589
84K473,K473,Williamsburg Charter High School,Charter,General Academic,High school,Open,198 VARET STREET,-73.935969,40.703703
14K474,K474,PROGRESS High School for Professional Careers,DOE,General Academic,High school,Open,850 GRAND STREET,-73.938921,40.711134
14K477,K477,East Williamsburg Scholars Academy,DOE,General Academic,High school,Open,850 GRAND STREET,-73.938921,40.711134
14K478,K478,"The High School for Enterprise, Business and Techn",DOE,General Academic,High school,Open,850 GRAND STREET,-73.938921,40.711134
17K479,K479,Erasmus Campus - Business/Tec,DOE,General Academic,High school,Closed,911 FLATBUSH AVENUE,-73.9585,40.6495
32K480,K480,Bushwick Hs,DOE,General Academic,High school,Closed,400 IRVING AVENUE,-73.9108,40.697
13K483,K483,The Urban Assembly School for Law and Justice,DOE,General Academic,High school,Open,283 ADAMS STREET,-73.988323,40.694629
17K484,K484,Ronald Edmonds Learning Center II,DOE,General Academic,Junior High-Intermediate-Middle,Open,430 HOWARD AVENUE,-73.920095,40.673124
20K485,K485,High School of Telecommunication Arts and Technolo,DOE,General Academic,High school,Open,350 67 STREET,-74.023419,40.636721
84K486,K486,New Dawn Charter High School,Charter,Transfer School,High school,Open,760 DEKALB AVENUE,-73.946093,40.691606
14K488,K488,Brooklyn Preparatory High School,DOE,General Academic,High school,Open,257 NORTH  6 STREET,-73.954815,40.715561
17K489,K489,W.E.B. Dubois Academic High School,DOE,Transfer School,High school,Closed,402 EASTERN PARKWAY,-73.955188,40.669561
20K490,K490,Fort Hamilton High School,DOE,General Academic,High school,Open,8301 SHORE ROAD,-74.038103,40.626827
13K492,K492,Academy of Arts and Letters,DOE,General Academic,K-8,Open,225 ADELPHI STREET,-73.970896,40.690742
23K493,K493,Brooklyn Collegiate: A College Board School,DOE,General Academic,High school,Open,2021 BERGEN STREET,-73.912685,40.674456
14K494,K494,"Urban Assembly Young Women's Academy For Math, Sci",DOE,General Academic,Secondary School,"Initiated, never opened",70 TOMPKINS AVENUE,-73.947557,40.696698
22K495,K495,Sheepshead Bay High School,DOE,General Academic,High school,Closed,3000 AVENUE X,-73.936635,40.593157
15K497,K497,The Boerum Hill School for International Studies,DOE,General Academic,Secondary School,Open,284 BALTIC STREET,-73.993293,40.685006
16K498,K498,Brooklyn High School for Law and Technology,DOE,General Academic,High school,Open,1396 BROADWAY,-73.920603,40.688399
13K499,K499,ACORN Community High School,DOE,General Academic,High school,Open,561 GRAND AVENUE,-73.961636,40.678591
18K500,K500,Canarsie High School,DOE,General Academic,High school,Closed,1600 ROCKAWAY PARKWAY,-73.898601,40.640543
19K502,K502,FDNY - Captain Vernon A. Richard High School for F,DOE,General Academic,High school,Open,400 PENNSYLVANIA AVENUE,-73.895122,40.666868
20K503,K503,P.S. 503: The School of Discovery,DOE,General Academic,Elementary,Open,330 59 STREET,-74.019299,40.64195
19K504,K504,High School for Civil Rights,DOE,General Academic,High school,Open,400 PENNSYLVANIA AVENUE,-73.895122,40.666868
20K505,K505,Franklin Delano Roosevelt High School,DOE,General Academic,High school,Open,5800 20 AVENUE,-73.982583,40.621299
20K506,K506,P.S. 506: The School of Journalism & Technology,DOE,General Academic,Elementary,Open,330 59 STREET,-74.019299,40.64195
19K507,K507,Performing Arts and Technology High School,DOE,General Academic,High school,Open,400 PENNSYLVANIA AVENUE,-73.895122,40.666868
84K508,K508,Achievement First Endeavor Charter School,Charter,General Academic,K-12 all grades,Open,510 WAVERLY AVENUE,-73.965928,40.682422
13K509,K509,Freedom Academy High School,DOE,General Academic,High school,Closed,116 NASSAU STREET,-73.986523,40.698274
19K510,K510,World Academy for Total Community Health High Scho,DOE,General Academic,High school,Open,400 PENNSYLVANIA AVENUE,-73.895122,40.666868
79K512,K512,Bushwick Outreach,DOE,Alternative,High school,Closed,231 PALMETTO STREET,-73.9151,40.6954
84K513,K513,East New York Preparatory Charter School,Charter,General Academic,Elementary,Closed,210 CHESTER STREET,-73.911279,40.666187
23K514,K514,Frederick Douglass Academy VII High School,DOE,General Academic,High school,Open,226 BRISTOL STREET,-73.912102,40.665568
18K515,K515,South Shore High School,DOE,General Academic,High school,Closed,6565 FLATLANDS AVENUE,-73.916927,40.634451
15K516,K516,Sunset Park Avenues Elementary School,DOE,General Academic,Elementary,Open,4222 4TH AVENUE,-74.008106,40.650793
84K517,K517,Leadership Prep Bedford Stuyvesant Uncommon Prep C,Charter,General Academic,K-12 all grades,Open,141 MACON STREET,-73.9456,40.68192
23K518,K518,Kappa V (Knowledge and Power Preparatory Academy),DOE,General Academic,Junior High-Intermediate-Middle,Open,985 ROCKAWAY AVENUE,-73.906662,40.655644
15K519,K519,Cobble Hill School of American Studies,DOE,General Academic,High school,Open,347 BALTIC STREET,-73.990884,40.684869
15K520,K520,Pacific High School,DOE,Transfer School,High school,Closed,112 SCHERMERHORN STREET,-73.989369,40.690007
18K521,K521,District 18 ES#1,DOE,General Academic,Elementary,"Initiated, never opened",1077 REMSEN AVENUE,-73.90788,40.642684
23K522,K522,Mott Hall IV,DOE,General Academic,Junior High-Intermediate-Middle,Open,1137 HERKIMER STREET,-73.915106,40.678124
17K523,K523,New Horizons Preparatory School,DOE,General Academic,High school,"Initiated, never opened",1925 STUART STREET,-73.938721,40.606745
17K524,K524,International High School at Prospect Heights,DOE,General Academic,High school,Open,883 CLASSON AVENUE,-73.960689,40.669805
21K525,K525,Edward R. Murrow High School,DOE,General Academic,High school,Open,1600 AVENUE L,-73.959141,40.619671
13K527,K527,Urban Assembly Institute of Math and Science for Y,DOE,General Academic,Secondary School,Open,283 ADAMS STREET,-73.988323,40.694629
17K528,K528,The High School for Global Citizenship,DOE,General Academic,High school,Open,883 CLASSON AVENUE,-73.960689,40.669805
15K529,K529,West Brooklyn Community High School,DOE,Transfer School,High school,Open,1053 41ST STREET,-73.992151,40.642619
15K530,K530,Metropolitan Corporate Academy High School,DOE,General Academic,High school,Closed,362 SCHERMERHORN STREET,-73.979829,40.686147
17K531,K531,"School for Human Rights, The",DOE,General Academic,Secondary School,Open,600 KINGSTON AVENUE,-73.943839,40.658671
17K532,K532,New Bridges Elementary,DOE,General Academic,Elementary,Open,1025 EASTERN PARKWAY,-73.934316,40.669557
17K533,K533,School for Democracy and Leadership,DOE,General Academic,Secondary School,Closed,600 KINGSTON AVENUE,-73.943839,40.658671
16K534,K534,Upper School @ P.S. 25,DOE,General Academic,Junior High-Intermediate-Middle,Closed,787 LAFAYETTE AVENUE,-73.940749,40.691472
22K535,K535,Leon M. Goldstein High School for the Sciences,DOE,General Academic,High school,Open,1830 SHORE BOULEVARD,-73.934449,40.578356
84K536,K536,Community Roots Charter School,Charter,General Academic,K-8,Open,51 SAINT EDWARDS STREET,-73.977674,40.695339
17K537,K537,High School for Youth and Community Development at,DOE,General Academic,High school,Open,911 FLATBUSH AVENUE,-73.957173,40.649602
84K538,K538,Achievement First Bushwick Charter School,Charter,General Academic,K-12 all grades,Open,1300 GREENE AVENUE,-73.919088,40.697898
17K539,K539,High School for Service & Learning at Erasmus,DOE,General Academic,High school,Open,911 FLATBUSH AVENUE,-73.957173,40.649602
21K540,K540,John Dewey High School,DOE,General Academic,High school,Open,50 AVENUE X,-73.981925,40.58807
17K543,K543,"Science, Technology and Research Early College Hig",DOE,General Academic,Secondary School,Open,911 FLATBUSH AVENUE,-73.957173,40.649602
17K544,K544,International Arts Business School,DOE,General Academic,High school,Closed,600 KINGSTON AVENUE,-73.943839,40.658671
32K545,K545,EBC High School for Public Service - Bushwick,DOE,General Academic,High school,Open,1155 DEKALB AVENUE,-73.929315,40.694723
17K546,K546,High School for Public Service: Heroes of Tomorrow,DOE,General Academic,High school,Open,600 KINGSTON AVENUE,-73.943839,40.658671
17K547,K547,Brooklyn Academy of Science and the Environment,DOE,General Academic,High school,Open,883 CLASSON AVENUE,-73.960689,40.669805
17K548,K548,Brooklyn School for Music & Theatre,DOE,General Academic,High school,Open,883 CLASSON AVENUE,-73.960689,40.669805
32K549,K549,The Brooklyn School for Social Justice,DOE,General Academic,High school,Open,400 IRVING AVENUE,-73.911751,40.696457
32K551,K551,New York Harbor School,DOE,Career Technical,High school,Closed,400 IRVING AVENUE,-73.911751,40.696457
32K552,K552,The Academy of Urban Planning and Engineering,DOE,General Academic,High school,Open,400 IRVING AVENUE,-73.911751,40.696457
13K553,K553,Brooklyn Academy High School,DOE,Transfer School,High school,Open,832 MARCY AVENUE,-73.947873,40.684654
32K554,K554,All City Leadership Secondary School,DOE,General Academic,Secondary School,Open,321 PALMETTO STREET,-73.913172,40.697378
22K555,K555,Brooklyn College Academy,DOE,General Academic,High school,Open,350 CONEY ISLAND AVENUE,-73.972312,40.649055
32K556,K556,Bushwick Leaders High School for Academic Excellen,DOE,General Academic,High school,Open,797 BUSHWICK AVENUE,-73.927349,40.695436
19K557,K557,Brooklyn Gardens Elementary School,DOE,General Academic,Elementary,Open,574 DUMONT AVENUE,-73.897604,40.665446
14K558,K558,Williamsburg High School for Architecture and Desi,DOE,Career Technical,High school,Open,257 NORTH  6 STREET,-73.954815,40.715561
21K559,K559,Life Academy High School for Film and Music,DOE,General Academic,High school,Open,2630 BENSON AVENUE,-73.986313,40.593028
14K561,K561,Williamsburg Preparatory School,DOE,General Academic,High school,Open,257 NORTH  6 STREET,-73.954815,40.715561
32K562,K562,Evergreen Middle School for Urban Exploration,DOE,General Academic,Junior High-Intermediate-Middle,Open,125 COVERT STREET,-73.910589,40.688647
18K563,K563,It Takes a Village Academy,DOE,General Academic,High school,Open,5800 TILDEN AVENUE,-73.922212,40.647728
32K564,K564,Bushwick Community High School,DOE,Transfer School,High school,Open,231 PALMETTO STREET,-73.915217,40.695875
18K566,K566,Brooklyn Community High School for Excellence and,DOE,General Academic,High school,Open,6565 FLATLANDS AVENUE,-73.916927,40.634451
18K567,K567,Brooklyn Theatre Arts High School,DOE,General Academic,High school,Open,6565 FLATLANDS AVENUE,-73.916927,40.634451
17K568,K568,Brownsville Academy High School,DOE,Transfer School,High school,Open,1150 EAST NEW YORK AVENUE,-73.923881,40.666251
18K569,K569,Kurt Hahn Expeditionary Learning School,DOE,General Academic,High school,Open,5800 TILDEN AVENUE,-73.922212,40.647728
13K571,K571,M.S. 571,DOE,General Academic,Junior High-Intermediate-Middle,Closed,80 UNDERHILL AVENUE,-73.966333,40.678554
21K572,K572,Leaders High School,DOE,General Academic,High school,Open,2630 BENSON AVENUE,-73.986313,40.593028
14K574,K574,Upper Academy At Ps 23,DOE,General Academic,Junior High-Intermediate-Middle,Closed,545 WILLOUGHBY AVENUE,-73.9476,40.6941
13K575,K575,Bedford Stuyvesant Preparatory High School,DOE,Transfer School,High school,Closed,832 MARCY AVENUE,-73.947873,40.684654
18K576,K576,Victory Collegiate High School,DOE,General Academic,High school,Open,6565 FLATLANDS AVENUE,-73.916927,40.634451
14K577,K577,Conselyea Preparatory School,DOE,General Academic,Junior High-Intermediate-Middle,Open,208 NORTH  5 STREET,-73.9573,40.715268
18K578,K578,Brooklyn Bridge Academy,DOE,Transfer School,High school,Open,6565 FLATLANDS AVENUE,-73.916927,40.634451
14K579,K579,Upper Academy At Ps 147,DOE,General Academic,Junior High-Intermediate-Middle,Closed,325 BUSHWICK AVENUE,-73.9394,40.7052
79K580,K580,Literacy Center - Brooklyn,DOE,Alternative,High school,Closed,832 MARCY AVENUE,-73.9472,40.685
18K581,K581,"The Middle School of Media, Law and Fine Arts",DOE,General Academic,Junior High-Intermediate-Middle,Open,905 WINTHROP STREET,-73.928744,40.659088
14K582,K582,M.S. 582,DOE,General Academic,Junior High-Intermediate-Middle,Open,207 BUSHWICK AVENUE,-73.939385,40.708804
19K583,K583,Multicultural High School,DOE,General Academic,High school,Open,999 JAMAICA AVENUE,-73.869305,40.693002
16K584,K584,M.S. 584,DOE,General Academic,Junior High-Intermediate-Middle,Closed,130 ROCHESTER AVENUE,-73.928673,40.674491
22K585,K585,Brooklyn Comprehensive Night High School,DOE,General Academic,High school,Closed,6565 FLATLANDS AVENUE,-73.9167,40.6333
14K586,K586,Lyons Community School,DOE,General Academic,Secondary School,Open,223 GRAHAM AVENUE,-73.944463,40.709765
17K587,K587,Middle School for the Arts,DOE,General Academic,Junior High-Intermediate-Middle,Closed,790 EAST NEW YORK AVENUE,-73.936313,40.662092
18K588,K588,Middle School for Art and Philosophy,DOE,General Academic,Junior High-Intermediate-Middle,Open,1084 LENOX ROAD,-73.919818,40.657712
18K589,K589,Arts & Media Preparatory Academy,DOE,General Academic,High school,Closed,905 WINTHROP STREET,-73.928744,40.659088
17K590,K590,Medgar Evers College Preparatory School,DOE,General Academic,Secondary School,Open,1186 CARROLL STREET,-73.951823,40.66679
15K592,K592,Khalil Gibran International Academy,DOE,General Academic,High school,Open,362 SCHERMERHORN STREET,-73.979829,40.686147
84K593,K593,Excellence Boys Charter School,Charter,General Academic,K-8,Open,239 PATCHEN AVENUE,-73.925851,40.683446
13K594,K594,Gotham Professional Arts Academy,DOE,General Academic,High school,Open,561 GRAND AVENUE,-73.961636,40.678591
13K595,K595,Bedford Academy High School,DOE,General Academic,High school,Open,1119 BEDFORD AVENUE,-73.953692,40.685486
13K596,K596,M.S. 596 Peace Academy,DOE,General Academic,Junior High-Intermediate-Middle,Closed,300 WILLOUGHBY AVENUE,-73.95818,40.692015
18K598,K598,Middle School of Marketing and Legal Studies,DOE,General Academic,Junior High-Intermediate-Middle,Closed,905 WINTHROP STREET,-73.928744,40.659088
23K599,K599,Brooklyn Landmark Elementary School,DOE,General Academic,Elementary,Open,251 MAC DOUGAL STREET,-73.910719,40.680679
17K600,K600,Clara Barton High School,DOE,Career Technical,High school,Open,901 CLASSON AVENUE,-73.960689,40.669805
13K605,K605,George Westinghouse Career and Technical Education,DOE,Career Technical,High school,Open,105 TECH PLACE,-73.986105,40.695444
13K605,K605,George Westinghouse Career and Technical Education,DOE,Career Technical,High school,Open,105 TECH PLACE,-73.986105,40.695444
84K608,K608,Kings Collegiate Charter School,Charter,General Academic,K-12 all grades,Open,1084 LENOX ROAD,-73.919818,40.657712
20K609,K609,Urban Assembly School for Criminal Justice,DOE,General Academic,Secondary School,Open,4200 16 AVENUE,-73.982424,40.6351
14K610,K610,A-Tech High School,DOE,Career Technical,High school,Open,50 BEDFORD AVENUE,-73.953328,40.721448
22K611,K611,Origins High School,DOE,General Academic,High school,Open,3000 AVENUE X,-73.936635,40.593157
79K612,K612,Community Preparatory High School,DOE,Alternative,High school,Closed,40 EAST  29 STREET,-73.9848,40.7444
14K614,K614,Young Women's Leadership School of Brooklyn,DOE,General Academic,Secondary School,Open,325 BUSHWICK AVENUE,-73.93879,40.705005
19K615,K615,Transit Tech Career and Technical Education High S,DOE,Career Technical,High school,Open,1 WELLS STREET,-73.875328,40.67878
13K616,K616,Brooklyn High School for Leadership and Community,DOE,Transfer School,High school,Open,300 WILLOUGHBY AVENUE,-73.95818,40.692015
18K617,K617,High School for Innovation in Advertising and Medi,DOE,Career Technical,High school,Open,1600 ROCKAWAY PARKWAY,-73.898601,40.640543
19K618,K618,Academy of Innovative Technology,DOE,Career Technical,High school,Open,999 JAMAICA AVENUE,-73.869305,40.693002
21K620,K620,William E. Grady Career and Technical Education Hi,DOE,Career Technical,High school,Open,25 BRIGHTON  4TH ROAD,-73.963764,40.583263
17K625,K625,Paul Robeson High School,DOE,General Academic,High school,Closed,150 ALBANY AVENUE,-73.939282,40.675905
84K626,K626,Achievement First Brownsville Charter School,Charter,General Academic,K-12 all grades,Open,2021 BERGEN STREET,-73.912685,40.674456
16K627,K627,Brighter Choice Community School,DOE,General Academic,Elementary,Open,280 HART STREET,-73.941278,40.693654
16K628,K628,Brooklyn Brownstone School,DOE,General Academic,Elementary,Open,272 MACDONOUGH STREET,-73.935891,40.681528
18K629,K629,Cultural Academy for the Arts and Sciences,DOE,General Academic,High school,Open,5800 TILDEN AVENUE,-73.922212,40.647728
22K630,K630,Professional Pathways High School,DOE,Transfer School,High school,Open,3000 AVENUE X,-73.936635,40.593157
23K631,K631,General D. Chappie James Elementary School of Scie,DOE,General Academic,Elementary,Closed,76 RIVERDALE AVENUE,-73.913508,40.659618
14K632,K632,Frances Perkins Academy,DOE,General Academic,High school,Closed,50 BEDFORD AVENUE,-73.953328,40.721448
18K633,K633,High School for Medical Professions,DOE,General Academic,High school,Open,1600 ROCKAWAY PARKWAY,-73.898601,40.640543
23K634,K634,General D. Chappie James Middle School of Science,DOE,General Academic,Junior High-Intermediate-Middle,Closed,76 RIVERDALE AVENUE,-73.913508,40.659618
18K635,K635,Olympus Academy,DOE,Transfer School,High school,Open,755 EAST  100 STREET,-73.898607,40.645965
18K635,K635,Olympus Academy,DOE,Transfer School,High school,Open,755 EAST  100 STREET,-73.898607,40.645965
16K636,K636,Young Scholars' Academy for Discovery and Explorat,DOE,General Academic,Elementary,Closed,280 HART STREET,-73.941278,40.693654
18K637,K637,Academy for Conservation and the Environment,DOE,General Academic,High school,Open,6565 FLATLANDS AVENUE,-73.916927,40.634451
19K639,K639,Brooklyn Lab School,DOE,General Academic,High school,Open,999 JAMAICA AVENUE,-73.869305,40.693002
14K640,K640,Harry Van Arsdale High School,DOE,Career Technical,High school,Closed,257 NORTH  6 STREET,-73.9548,40.7151
18K642,K642,Urban Action Academy,DOE,General Academic,High school,Open,1600 ROCKAWAY PARKWAY,-73.898601,40.640543
23K643,K643,Brooklyn Democracy Academy,DOE,Transfer School,High school,Open,985 ROCKAWAY AVENUE,-73.906662,40.655644
23K644,K644,Eagle Academy for Young Men II,DOE,General Academic,Secondary School,Open,1137 HERKIMER STREET,-73.915106,40.678124
23K645,K645,EBC/ENY High School for Public Safety & Law,DOE,General Academic,High school,Closed,1495 HERKIMER STREET,-73.904143,40.677528
17K646,K646,Aspirations Diploma Plus High School,DOE,Transfer School,High school,Open,402 EASTERN PARKWAY,-73.955188,40.669561
23K647,K647,Metropolitan Diploma Plus High School,DOE,Transfer School,High school,Open,985 ROCKAWAY AVENUE,-73.906662,40.655644
84K648,K648,Bedford Stuyvesant Collegiate Charter School,Charter,General Academic,Secondary School,Open,800 GATES AVENUE,-73.932066,40.68797
84K649,K649,La Cima Charter School,Charter,General Academic,Elementary,Open,800 GATES AVENUE,-73.932066,40.68797
84K651,K651,PAVE Academy Charter School,Charter,General Academic,K-8,Open,732 HENRY STREET,-74.003372,40.675936
84K652,K652,Brooklyn Ascend Charter School,Charter,General Academic,K-12 all grades,Open,205 Rockaway Parkway,-73.92044,40.661945
19K654,K654,Van Siclen Community Middle School,DOE,General Academic,Junior High-Intermediate-Middle,Open,800 VAN SICLEN AVE,-73.885704,40.659934
15K656,K656,Brooklyn High School of the Arts,DOE,General Academic,High school,Open,345 DEAN STREET,-73.980266,40.683951
19K659,K659,Cypress Hills Collegiate Preparatory School,DOE,General Academic,High school,Open,999 JAMAICA AVENUE,-73.869305,40.693002
19K660,K660,W. H. Maxwell Career and Technical Education High,DOE,Career Technical,High school,Open,145 PENNSYLVANIA AVENUE,-73.895976,40.673766
19K661,K661,Vista Academy,DOE,General Academic,Junior High-Intermediate-Middle,Open,350 LINWOOD STREET,-73.884211,40.677112
19K662,K662,Liberty Avenue Middle School,DOE,General Academic,Junior High-Intermediate-Middle,Open,350 LINWOOD STREET,-73.884211,40.677112
19K663,K663,School of the Future Brooklyn,DOE,General Academic,Junior High-Intermediate-Middle,Open,574 DUMONT AVENUE,-73.897604,40.665446
23K664,K664,Brooklyn Environmental Exploration School (BEES),DOE,General Academic,Junior High-Intermediate-Middle,Open,251 MAC DOUGAL STREET,-73.910719,40.680679
15K667,K667,Sunset Park High School,DOE,General Academic,High school,Open,153 35TH STREET,-74.004342,40.655583
23K668,K668,Riverdale Avenue Middle School,DOE,General Academic,Junior High-Intermediate-Middle,Open,76 RIVERDALE AVENUE,-73.913508,40.659618
16K669,K669,Research and Service High School,DOE,Transfer School,High school,Open,1700 FULTON STREET,-73.931604,40.678478
13K670,K670,Benjamin Banneker Academy,DOE,General Academic,High school,Open,71-77 CLINTON AVENUE,-73.968759,40.695389
23K671,K671,Mott Hall Bridges Academy,DOE,General Academic,Junior High-Intermediate-Middle,Open,210 CHESTER STREET,-73.911279,40.666187
16K672,K672,New Eagle Academy at K455,DOE,General Academic,Secondary School,"Initiated, never opened",1700 FULTON STREET,-73.931604,40.678478
18K673,K673,East Brooklyn Community High School,DOE,Transfer School,High school,Open,9517 KINGS HIGHWAY,-73.920658,40.659914
13K674,K674,"City Polytechnic High School of Engineering, Archi",DOE,Career Technical,High school,Open,105 TECH PLACE,-73.986105,40.695444
13K674,K674,"City Polytechnic High School of Engineering, Archi",DOE,Career Technical,High school,Open,105 TECH PLACE,-73.986105,40.695444
15K676,K676,Red Hook Neighborhood School,DOE,General Academic,Elementary,Open,27 HUNTINGTON STREET,-74.005151,40.677914
19K677,K677,East New York Elementary School of Excellence,DOE,General Academic,Elementary,Open,605 SHEPHERD AVENUE,-73.879131,40.669358
19K678,K678,East New York Middle School of Excellence,DOE,General Academic,Junior High-Intermediate-Middle,Open,605 SHEPHERD AVENUE,-73.879131,40.669358
84K680,K680,Achievement First Aspire Charter School,Charter,General Academic,Elementary,Open,982 HEGEMAN AVENUE,-73.876084,40.665817
16K681,K681,Madiba Prep Middle School,DOE,General Academic,Junior High-Intermediate-Middle,Open,1014 LAFAYETTE AVENUE,-73.9317,40.6921
16K681,K681,Madiba Prep Middle School,DOE,General Academic,Junior High-Intermediate-Middle,Open,1014 LAFAYETTE AVENUE,-73.9317,40.6921
20K682,K682,The Academy of Talented Scholars,DOE,General Academic,Elementary,Open,50 AVENUE P,-73.986678,40.606994
19K683,K683,School for Classics High School,DOE,General Academic,High school,Open,370 FOUNTAIN AVENUE,-73.874537,40.67002
15K684,K684,Millennium Brooklyn HS,DOE,General Academic,High school,Open,237 7 AVENUE,-73.97858,40.669255
14K685,K685,El Puente Academy for Peace and Justice,DOE,General Academic,High school,Open,250 HOOPER STREET,-73.955741,40.70554
20K686,K686,Brooklyn School of Inquiry,DOE,General Academic,K-8,Open,50 AVENUE P,-73.986678,40.606994
16K688,K688,The Brooklyn Academy of Global Finance,DOE,General Academic,High school,Open,125 STUYVESANT AVENUE,-73.932254,40.691467
84K689,K689,Citizens of the World Charter School 1 Williamsbur,Charter,General Academic,Elementary,Closed,424 LEONARD STREET,-73.947932,40.719818
21K690,K690,Brooklyn Studio Secondary School,DOE,General Academic,Secondary School,Open,8310 21ST AVENUE,-73.995084,40.60498
13K691,K691,Fort Greene Preparatory Academy,DOE,General Academic,Junior High-Intermediate-Middle,Open,100 CLERMONT AVENUE,-73.971644,40.69453
84K692,K692,Citizens of the World Charter School New York 2 Cr,Charter,General Academic,Elementary,Closed,791 EMPIRE BOULEVARD,-73.935753,40.663964
84K693,K693,Northside Charter High School,Charter,General Academic,High school,Open,424 LEONARD STREET,-73.947932,40.719818
84K694,K694,Believe Southside Charter High School,Charter,General Academic,High school,Closed,424 LEONARD STREET,-73.947932,40.719818
23K697,K697,Teachers Preparatory High School,DOE,General Academic,Secondary School,Open,226 BRISTOL STREET,-73.912102,40.665568
15K698,K698,South Brooklyn Community High School,DOE,Transfer School,High school,Open,173 CONOVER STREET,-74.014363,40.677968
84K701,K701,Brooklyn Charter School,Charter,General Academic,Elementary,Open,545 WILLOUGHBY AVENUE,-73.947256,40.69447
84K702,K702,Community Partnership Charter School,Charter,General Academic,K-8,Open,241 EMERSON PLACE,-73.961134,40.691275
84K703,K703,Beginning With Children Charter School,Charter,General Academic,K-8,Closed,850 KENT AVENUE,-73.959999,40.695397
84K704,K704,Explore Charter School,Charter,General Academic,K-8,Open,655 PARKSIDE AVENUE,-73.951575,40.656423
17K705,K705,Brooklyn Arts and Science Elementary School,DOE,General Academic,Elementary,Open,443 ST MARKS AVENUE,-73.960093,40.6771
84K707,K707,Brooklyn Prospect Charter School,Charter,General Academic,K-12 all grades,Open,3002 FORT HAMILTON PARKWAY,-73.97872,40.647893
84K710,K710,Brownsville Collegiate Charter School,Charter,General Academic,Junior High-Intermediate-Middle,Open,364 SACKMAN STREET,-73.90514,40.668768
84K711,K711,Leadership Preparatory Brownsville Charter School,Charter,General Academic,K-8,Open,985 ROCKAWAY AVENUE,-73.906662,40.655644
84K712,K712,Excellence Girls Charter School,Charter,General Academic,K-12 all grades,Open,794 MONROE STREET,-73.924422,40.6881
75K721,K721,P.S. K721 - Brooklyn Occupational Training Center,DOE,Special Education,High school,Open,64 AVENUE X,-73.981925,40.58807
17K722,K722,New Heights Middle School,DOE,General Academic,Junior High-Intermediate-Middle,Open,790 EAST NEW YORK AVENUE,-73.936313,40.662092
84K724,K724,Leadership Prep Canarsie Charter School (Leadershi,Charter,General Academic,K-8,Open,1070 EAST 104 STREET,-73.892797,40.644134
84K726,K726,Fahari Academy Charter School,Charter,General Academic,Secondary School,Closed,72 VERONICA PLACE,-73.95348,40.648352
21K728,K728,Liberation Diploma Plus,DOE,Transfer School,High school,Open,2865 WEST 19TH STREET,-73.985413,40.576976
84K730,K730,Summit Academy Charter School,Charter,General Academic,Secondary School,Open,27 HUNTINGTON STREET,-74.005151,40.677914
84K731,K731,Brooklyn Excelsior Charter School,Charter,General Academic,K-8,Open,856 QUINCY STREET,-73.925087,40.689569
84K733,K733,"Math, Engineering, and Science Academy Charter Hig",Charter,General Academic,High school,Open,231 PALMETTO STREET,-73.915217,40.695875
84K734,K734,The Ethical Community Charter School (TECCS),Charter,General Academic,Elementary,Closed,700 PARK AVENUE,-73.948166,40.697377
84K736,K736,New American Academy Charter School,Charter,General Academic,Elementary,Open,9301 AVENUE B,-73.914282,40.651642
84K737,K737,Brownsville Ascend Charter School,Charter,General Academic,K-8,Open,1501 PITKIN AVENUE,-73.918123,40.668608
84K738,K738,New Visions Charter High School for Advanced Math,Charter,General Academic,High school,Open,3000 AVENUE X,-73.936635,40.593157
84K739,K739,New Visions Charter High School for the Humanities,Charter,General Academic,High school,Open,3000 AVENUE X,-73.936635,40.593157
84K740,K740,Brooklyn Scholars Charter School,Charter,General Academic,K-8,Open,2635 LINDEN BOULEVARD,-73.867138,40.669356
84K741,K741,Success Academy Crown Heights (Brooklyn 7),Charter,General Academic,Elementary,Open,330 CROWN STREET,-73.949243,40.665757
84K742,K742,Explore Empower Charter School,Charter,General Academic,K-8,Open,188 ROCHESTER AVENUE,-73.928917,40.67271
84K744,K744,Coney Island Preparatory Public Charter School,Charter,General Academic,K-12 all grades,Open,501 WEST AVENUE,-73.972009,40.582518
84K744,K744,Coney Island Preparatory Public Charter School,Charter,General Academic,K-12 all grades,Open,501 WEST AVENUE,-73.972009,40.582518
17K745,K745,Brooklyn Institute for Liberal Arts,DOE,General Academic,High school,Open,600 KINGSTON AVENUE,-73.943839,40.658671
84K746,K746,Hebrew Language Academy Charter School,Charter,General Academic,K-8,Open,2186 MILL AVENUE,-73.914312,40.612258
23K747,K747,P.S. 747 A Great Start Academy,DOE,General Academic,Elementary,"Initiated, never opened",51 CHRISTOPHER AVENUE,-73.906018,40.672216
20K748,K748,P.S. 748 Brooklyn School for Global Scholars,DOE,General Academic,Elementary,Open,1664 BENSON AVENUE,-74.007469,40.606739
15K749,K749,Brooklyn High School For Young Men,DOE,General Academic,High school,"Initiated, never opened",362 SCHERMERHORN STREET,-73.979829,40.686147
17K751,K751,Academy for Health Careers,DOE,Career Technical,High school,Open,150 ALBANY AVENUE,-73.939282,40.675905
84K752,K752,Success Academy Fort Greene (Brooklyn 5),Charter,General Academic,Elementary,Open,101 PARK AVENUE,-73.976104,40.697177
75K753,K753,P.S. K753 - School for Career Development,DOE,Special Education,High school,Open,510 CLERMONT AVENUE,-73.969248,40.682576
84K756,K756,Success Academy Prospect Heights (Brooklyn 6),Charter,General Academic,K-8,Open,760 PROSPECT PLACE,-73.951559,40.673943
84K756,K756,Success Academy Prospect Heights (Brooklyn 6),Charter,General Academic,K-8,Open,760 PROSPECT PLACE,-73.951559,40.673943
84K757,K757,Unity Prep Charter School,Charter,General Academic,Secondary School,Open,432 MONROE STREET,-73.940859,40.686213
84K758,K758,Brooklyn Urban Garden Charter School,Charter,General Academic,Junior High-Intermediate-Middle,Open,500 19TH STREET,-73.982624,40.656202
84K759,K759,Canarsie Ascend Charter School,Charter,General Academic,Elementary,Open,9719 FLATLANDS AVENUE,-73.900432,40.643834
19K760,K760,Highland Park Community School,DOE,General Academic,Junior High-Intermediate-Middle,Open,528 RIDGEWOOD AVENUE,-73.869434,40.685852
18K763,K763,Brooklyn Science and Engineering Academy,DOE,General Academic,Junior High-Intermediate-Middle,Open,5404 TILDEN AVENUE,-73.925592,40.647851
19K764,K764,The Urban Assembly School for Collaborative Health,DOE,Career Technical,High school,Open,999 JAMAICA AVENUE,-73.869305,40.693002
16K765,K765,Nelson Mandela High School,DOE,General Academic,High school,Open,1700 FULTON STREET,-73.931604,40.678478
84K766,K766,The International Charter School of New York,Charter,General Academic,Elementary,Open,55 Willoughby Street,-73.986867,40.692434
84K769,K769,Hyde Leadership Charter School- Brooklyn,Charter,General Academic,Elementary,Open,330 ALABAMA AVENUE,-73.898249,40.667985
84K793,K793,Bushwick Ascend Charter School,Charter,General Academic,K-8,Open,751 KNICKERBOCKER AVENUE,-73.90892,40.693748
17K770,K770,P.S. 770 New American Academy,DOE,General Academic,Elementary,Open,60 EAST  94 STREET,-73.927979,40.663388
75K771,K771,P.S. K771,DOE,Special Education,K-12 all grades,Open,1075 OCEAN VIEW AVENUE,-73.955856,40.58026
84K772,K772,Success Academy Charter School - Bensonhurst - New,Charter,General Academic,Elementary,Open,99 AVENUE P,-73.984985,40.608135
84K774,K774,Achievement First Apollo Charter School,Charter,General Academic,K-8,Open,350 LINWOOD STREET,-73.884211,40.677112
84K775,K775,Leadership Preparatory Ocean Hill Charter School,Charter,General Academic,K-12 all grades,Open,51 CHRISTOPHER AVENUE,-73.906018,40.672216
84K777,K777,Ocean Hill Collegiate Charter School,Charter,General Academic,Junior High-Intermediate-Middle,Open,1137 HERKIMER STREET,-73.915106,40.678124
84K780,K780,Brooklyn East Collegiate Charter School,Charter,General Academic,Junior High-Intermediate-Middle,Open,832 MARCY AVENUE,-73.947873,40.684654
84K781,K781,Success Academy Charter School - Bergen Beach - Ne,Charter,General Academic,Elementary,Open,1420 EAST  68 STREET,-73.912914,40.620537
84K782,K782,Bedford Stuyvesant New Beginnings Charter School,Charter,General Academic,K-8,Open,82 LEWIS AVENUE,-73.937717,40.694676
84K784,K784,Achievement First North Brooklyn Prep Charter Scho,Charter,General Academic,Elementary,Open,200 WOODBINE STREET,-73.915159,40.693542
84K785,K785,Imagine Me Leadership Charter School,Charter,General Academic,Elementary,Open,818 SCHENCK AVENUE,-73.883469,40.660077
84K788,K788,Achievement First Linden Elementary School,Charter,General Academic,Elementary,Open,800 VAN SICLEN AVE,-73.885704,40.659934
84K789,K789,Compass Charter School,Charter,General Academic,Elementary,Open,300 ADELPHI STREET,-73.971474,40.688769
84K790,K790,Central Brooklyn Ascend Charter School,Charter,General Academic,Elementary,Open,465 EAST  29 STREET,-73.948982,40.638957
84K791,K791,Brooklyn Dreams Charter School,Charter,General Academic,K-8,Open,259 PARKVILLE AVENUE,-73.969887,40.632149
84K792,K792,The Cultural Arts Academy at Spring Creek Charter,Charter,General Academic,Elementary,Open,1400 LINDEN BOULEVARD,-73.908341,40.65452
84K796,K796,Lefferts Gardens Charter School,Charter,General Academic,Elementary,Closed,601 PARKSIDE AVENUE,-73.95381,40.656276
84K797,K797,New Hope Academy Charter School,Charter,General Academic,Elementary,Closed,475 EAST   57 STREET,-73.922733,40.643897
84K803,K803,Brooklyn LAB Charter School,Charter,General Academic,Junior High-Intermediate-Middle,Open,77 Sands Street,-73.987399,40.70043
84K807,K807,Collegiate Academy for Math and Personal Awareness,Charter,General Academic,Junior High-Intermediate-Middle,Open,1962-84 LINDEN BLVD.,-73.888775,40.65787
75K811,K811,P.S. K811 Connie Lekas School,DOE,Special Education,Secondary School,Open,2525 HARING STREET,-73.93861,40.591132
15K821,K821,Sunset Park Prep,DOE,General Academic,Junior High-Intermediate-Middle,Open,4004 4 AVENUE,-74.007596,40.652127
15K839,K839,M.S. 839,DOE,General Academic,Junior High-Intermediate-Middle,Open,713 CATON AVENUE,-73.973363,40.647598
84K876,K876,Achievement First Voyager Charter School,Charter,General Academic,Secondary School,Open,601 PARKSIDE AVENUE,-73.95381,40.656276
84K879,K879,Brooklyn Prospect Charter School Downtown,Charter,General Academic,K-8,Open,1104 FULTON STREET,-73.956832,40.681102
84K882,K882,Success Academy Charter School - Bushwick,Charter,General Academic,Elementary,Open,139 MENAHAN STREET,-73.919653,40.695975
84K883,K883,Success Academy Charter School - Bed Stuy 3,Charter,General Academic,Junior High-Intermediate-Middle,Open,787 LAFAYETTE AVENUE,-73.940749,40.691472
84K886,K886,Success Academy Charter School - Flatbush,Charter,General Academic,Elementary,Open,15 SNYDER AVENUE,-73.957501,40.64879
22K889,K889,P.S. 889,DOE,General Academic,Elementary,Open,21 HINCKLEY PLACE,-73.97101,40.644861
22K890,K890,M.S. 890,DOE,General Academic,Junior High-Intermediate-Middle,Open,21 HINCKLEY PLACE,-73.97101,40.644861
84K892,K892,Brooklyn Emerging Leaders Academy,Charter,General Academic,High school,Open,125 STUYVESANT AVENUE,-73.932254,40.691467
84K895,K895,Hebrew Language Academy Charter School 2,Charter,General Academic,Elementary,Open,1870 Stillwell Avenue,-73.986345,40.600808
15K896,K896,The School of Creativity and Innovation,DOE,General Academic,Elementary,Open,736 48TH STREET,-74.004306,40.643018
16K898,K898,The Brooklyn Green School,DOE,General Academic,Junior High-Intermediate-Middle,Open,130 ROCHESTER AVENUE,-73.928673,40.674491
19K907,K907,Legacy School of the Arts,DOE,General Academic,Junior High-Intermediate-Middle,Open,590 SHEFFIELD AVENUE,-73.894877,40.662243
84K910,K910,Cypress Hills Ascend Charter School,Charter,General Academic,Early Childhood,Open,396 GRANT AVENUE,-73.867071,40.681183
84K911,K911,Edmund W. Gordon Brooklyn Laboratory Charter Schoo,Charter,General Academic,Secondary School,Open,77 Sands Street,-73.987399,40.70043
84K912,K912,Key Collegiate Charter School,Charter,General Academic,Elementary,Open,250 BLAKE AVENUE,-73.910292,40.665264
84K912,K912,Key Collegiate Charter School,Charter,General Academic,Elementary,Open,250 BLAKE AVENUE,-73.910292,40.665264
13K915,K915,I.S. 915,DOE,General Academic,Junior High-Intermediate-Middle,Open,105 TECH PLACE,-73.986105,40.695444
13K915,K915,I.S. 915,DOE,General Academic,Junior High-Intermediate-Middle,Open,105 TECH PLACE,-73.986105,40.695444
84K927,K927,Ivy Hill Preparatory Charter School,Charter,General Academic,Elementary,Open,475 EAST   57 STREET,-73.922733,40.643897
84K928,K928,Brooklyn Prospect Charter School 15.2,Charter,General Academic,Junior High-Intermediate-Middle,Open,3002 FORT HAMILTON PARKWAY,-73.97872,40.647893
84K929,K929,East Brooklyn Ascend Charter School,Charter,General Academic,Junior High-Intermediate-Middle,Open,396 GRANT AVENUE,-73.867071,40.681183
84K930,K930,LEEP Dual Language Academy,Charter,General Academic,Elementary,Open,5323 5 AVENUE,-74.012089,40.642877
84K933,K933,Lefferts Gardens Ascend Charter School,Charter,General Academic,Elementary,Open,870 ALBANY AVENUE,-73.939706,40.652671
84K934,K934,East Flatbush Ascend Charter School,Charter,General Academic,Elementary,Open,870 ALBANY AVENUE,-73.939706,40.652671
84K937,K937,Brooklyn RISE Charter School,Charter,General Academic,Elementary,Open,473 53 STREET,-74.01214,40.643747
20K971,K971,"School of Math, Science, and Healthy Living",DOE,General Academic,Elementary,Open,6214 4TH AVENUE,-74.020343,40.639518
02M001,M001,P.S. 001 Alfred E. Smith,DOE,General Academic,Elementary,Open,8 HENRY STREET,-73.997478,40.71255
02M002,M002,P.S. 002 Meyer London,DOE,General Academic,Elementary,Open,122 HENRY STREET,-73.991523,40.712907
02M003,M003,P.S. 003 Charrette School,DOE,General Academic,Elementary,Open,490 HUDSON STREET,-74.005949,40.732603
06M004,M004,P.S. 004 Duke Ellington,DOE,General Academic,Elementary,Open,500 WEST 160 STREET,-73.941594,40.834877
06M005,M005,P.S. 005 Ellen Lurie,DOE,General Academic,Elementary,Open,3703 TENTH AVENUE,-73.922277,40.857633
02M006,M006,P.S. 006 Lillie D. Blake,DOE,General Academic,Elementary,Open,45 EAST  81 STREET,-73.960427,40.777737
04M007,M007,P.S. 007 Samuel Stern,DOE,General Academic,K-8,Open,160 EAST 120 STREET,-73.939374,40.800616
06M008,M008,P.S. 008 Luis Belliard,DOE,General Academic,Elementary,Open,465 WEST 167 STREET,-73.936614,40.839235
03M009,M009,P.S. 009 Sarah Anderson,DOE,General Academic,Elementary,Open,100 WEST  84 STREET,-73.974256,40.785234
05M010,M010,JHS 010 Frederick Douglas,DOE,General Academic,Junior High-Intermediate-Middle,Closed,2581 7TH AVENUE,-73.9371,40.8243
02M011,M011,P.S. 011 William T. Harris,DOE,General Academic,Elementary,Open,320 WEST  21 STREET,-74.000743,40.744186
04M012,M012,Tag Young Scholars,DOE,General Academic,K-8,Open,240 EAST 109 STREET,-73.942285,40.792556
04M013,M013,J.H.S. 013 Jackie Robinson,DOE,General Academic,Junior High-Intermediate-Middle,Closed,1573 MADISON AVENUE,-73.948488,40.793649
01M015,M015,P.S. 015 Roberto Clemente,DOE,General Academic,Elementary,Open,333 EAST  4 STREET,-73.978747,40.722075
02M017,M017,JHS 017 La Salle,DOE,General Academic,Junior High-Intermediate-Middle,Closed,328 WEST  48 STREET,-73.988,40.7614
06M018,M018,P.S. 018 Park Terrace,DOE,General Academic,K-8,Open,4124 9 AVENUE,-73.911732,40.871456
01M019,M019,P.S. 019 Asher Levy,DOE,General Academic,Elementary,Open,185 1 AVENUE,-73.984496,40.730009
01M020,M020,P.S. 020 Anna Silver,DOE,General Academic,Elementary,Open,166 ESSEX STREET,-73.986312,40.721305
06M028,M028,P.S. 028 Wright Brothers,DOE,General Academic,Elementary,Open,475 WEST 155 STREET,-73.942023,40.83163
05M030,M030,P.S. 030 Hernandez/Hughes,DOE,General Academic,Elementary,Open,144-176 EAST 128 STREET,-73.935461,40.805653
02M033,M033,P.S. 033 Chelsea Prep,DOE,General Academic,Elementary,Open,281 9 AVENUE,-74.000238,40.749014
01M034,M034,P.S. 034 Franklin D. Roosevelt,DOE,General Academic,K-8,Open,730 EAST  12 STREET,-73.975058,40.726008
75M035,M035,P.S. 035,DOE,Special Education,K-12 all grades,Open,317 WEST  52ND STREET,-73.985899,40.764129
05M036,M036,P.S. 036 Margaret Douglas,DOE,General Academic,Elementary,Open,123 MORNINGSIDE DRIVE,-73.957409,40.810705
04M037,M037,River East Elementary,DOE,General Academic,Elementary,Open,2351 FIRST AVENUE,-73.93374,40.799265
04M038,M038,P.S. 38 Roberto Clemente,DOE,General Academic,Elementary,Open,232 EAST 103 STREET,-73.944762,40.788668
02M040,M040,P.S. 040 Augustus Saint-Gaudens,DOE,General Academic,Elementary,Open,320 EAST 20TH STREET,-73.981536,40.735328
02M040,M040,P.S. 040 Augustus Saint-Gaudens,DOE,General Academic,Elementary,Open,320 EAST 20TH STREET,-73.981536,40.735328
02M041,M041,P.S. 041 Greenwich Village,DOE,General Academic,Elementary,Open,116 WEST  11 STREET,-73.999094,40.73545
02M042,M042,P.S. 042 Benjamin Altman,DOE,General Academic,Elementary,Open,71 HESTER STREET,-73.990826,40.716126
03M044,M044,J.H.S. M044 William J. O'Shea,DOE,General Academic,Junior High-Intermediate-Middle,Closed,100 WEST  77 STREET,-73.977602,40.780536
04M045,M045,M.S. 45/S.T.A.R.S. Prep Academy,DOE,General Academic,Junior High-Intermediate-Middle,Closed,2351 1ST AVENUE,-73.93374,40.799265
05M046,M046,P.S. 046 Arthur Tappan,DOE,General Academic,K-8,Open,2987 FREDERICK DOUGLASS BOULEVARD,-73.9363,40.8304
02M047,M047,47 The American Sign Language and English Secondar,DOE,Special Education,High school,Open,223 EAST 23 STREET,-73.981329,40.738374
06M048,M048,P.S. 048 P.O. Michael J. Buczek,DOE,General Academic,Elementary,Open,4360-78 BROADWAY,-73.933629,40.853193
04M050,M050,P.S. 050 Vito Marcantonio,DOE,General Academic,K-8,Closed,433 EAST 100 STREET,-73.940919,40.785559
02M051,M051,P.S. 051 Elias Howe,DOE,General Academic,Elementary,Open,525 WEST 44TH STREET,-73.995825,40.761487
06M052,M052,Harold O. Levy School,DOE,General Academic,Junior High-Intermediate-Middle,Open,650 ACADEMY STREET,-73.925464,40.865556
03M054,M054,J.H.S. 054 Booker T. Washington,DOE,General Academic,Junior High-Intermediate-Middle,Open,103 WEST 107 STREET,-73.96327,40.8007
01M056,M056,JHS 056 Corlears,DOE,General Academic,Junior High-Intermediate-Middle,Closed,220 HENRY STREET,-73.9863,40.7137
04M057,M057,James Weldon Johnson,DOE,General Academic,K-8,Open,176 EAST 115 STREET,-73.941598,40.797205
02M059,M059,P.S. 059 Beekman Hill International,DOE,General Academic,Elementary,Open,231-249 EAST 56 STREET,-73.967204,40.759248
01M063,M063,The STAR Academy - P.S.63,DOE,General Academic,Elementary,Open,121 EAST  3 STREET,-73.986214,40.72444
01M064,M064,P.S. 064 Robert Simon,DOE,General Academic,Elementary,Open,600 EAST  6 STREET,-73.981597,40.72313
84M065,M065,Democracy Prep Endurance Charter School,Charter,General Academic,Secondary School,Open,250 WEST 127 STREET,-73.948902,40.810499
84M068,M068,KIPP Washington Heights Middle School,Charter,General Academic,K-12 all grades,Open,21 JUMEL PLACE,-73.935815,40.839139
04M072,M072,The Lexington Academy,DOE,General Academic,K-8,Open,131 EAST 104 STREET,-73.94745,40.791444
03M075,M075,P.S. 075 Emily Dickinson,DOE,General Academic,Elementary,Open,735 WEST END AVENUE,-73.973996,40.795109
03M076,M076,P.S. 076 A. Philip Randolph,DOE,General Academic,K-8,Open,220 WEST 121 STREET,-73.951451,40.806534
02M077,M077,P.S. 77 Lower Lab School,DOE,General Academic,Elementary,Open,1700 3 AVENUE,-73.95042,40.785018
75M079,M079,P.S. M079 - Horan School,DOE,Special Education,Secondary School,Open,55 EAST 120 STREET,-73.942009,40.802547
84M080,M080,Manhattan Charter School II,Charter,General Academic,Elementary,Open,220 HENRY STREET,-73.986051,40.713362
04M083,M083,P.S. 083 Luis Munoz Rivera,DOE,General Academic,Elementary,Open,219 EAST 109 STREET,-73.941955,40.793363
03M084,M084,P.S. 084 Lillian Weber,DOE,General Academic,Elementary,Open,32 WEST  92 STREET,-73.968419,40.789479
84M085,M085,Global Community Charter School,Charter,General Academic,Elementary,Open,2350 5TH AVENUE,-73.934951,40.81698
03M087,M087,P.S. 087 William Sherman,DOE,General Academic,Elementary,Open,160 WEST  78 STREET,-73.97802,40.78171
85M088,M088,JHS 088 Wadleigh,DOE,General Academic,Junior High-Intermediate-Middle,Closed,215 WEST 114 STREET,-73.9542,40.8022
02M089,M089,P.S. 89,DOE,General Academic,Elementary,Open,201 WARREN STREET,-74.013967,40.71701
06M090,M090,I S 090 Mirabel Sisters,DOE,General Academic,Junior High-Intermediate-Middle,Closed,21 JUMEL PLACE,-73.9362,40.8393
05M092,M092,P.S. 092 Mary McLeod Bethune,DOE,General Academic,Elementary,Open,222 WEST 134 STREET,-73.945838,40.814917
75M094,M094,P.S. M094,DOE,Special Education,K-12 all grades,Open,55 BATTERY PLACE,-74.017456,40.706384
04M096,M096,P.S. 096 Joseph Lanzetta,DOE,General Academic,K-8,Open,216 EAST 120 STREET,-73.937179,40.79969
06M098,M098,P.S. 098 Shorac Kappock,DOE,General Academic,Elementary,Open,512 WEST 212 STREET,-73.917814,40.867741
04M099,M099,JHS 099,DOE,General Academic,Junior High-Intermediate-Middle,Closed,410 EAST 100 STREET,-73.9425,40.7856
84M100,M100,Neighborhood Charter School of Harlem,Charter,General Academic,K-8,Open,691 St Nicholas Avenue,-73.945427,40.823676
04M101,M101,P.S. 101 Andrew Draper,DOE,General Academic,Junior High-Intermediate-Middle,Closed,141 EAST 111 STREET,-73.944546,40.796098
04M102,M102,P.S. 102 Jacques Cartier,DOE,General Academic,Elementary,Open,315 EAST 113 STREET,-73.938418,40.795
06M103,M103,Dos Puentes Elementary School,DOE,General Academic,Elementary,Open,185 WADSWORTH AVENUE,-73.933964,40.850561
02M104,M104,J.H.S. 104 Simon Baruch,DOE,General Academic,Junior High-Intermediate-Middle,Open,330 EAST  21 STREET,-73.981034,40.735879
04M108,M108,P.S. 108 Assemblyman Angelo Del Toro Educational C,DOE,General Academic,K-8,Open,1615 MADISON AVENUE,-73.947855,40.795032
04M109,M109,PS 109 Century,DOE,General Academic,Elementary,Closed,410 EAST 100 STREET,-73.9425,40.7856
01M110,M110,P.S. 110 Florence Nightingale,DOE,General Academic,Elementary,Open,285 DELANCY STREET,-73.9798,40.7162
02M111,M111,P.S. 111 Adolph S. Ochs,DOE,General Academic,Elementary,Open,440 WEST  53 STREET,-73.989776,40.76588
04M112,M112,P.S. 112 Jose Celso Barbosa,DOE,General Academic,Early Childhood,Open,535 EAST 119 STREET,-73.930528,40.796889
02M114,M114,East Side Middle School,DOE,General Academic,Junior High-Intermediate-Middle,Open,331 EAST 91ST STREET,-73.947379,40.780452
06M115,M115,P.S. 115 Alexander Humboldt,DOE,General Academic,Elementary,Open,586 WEST 177 STREET,-73.93514,40.846116
02M116,M116,P.S. 116 Mary Lindley Murray,DOE,General Academic,Elementary,Open,210 EAST  33 STREET,-73.977906,40.744511
04M117,M117,Tito Puente Education Complex,DOE,General Academic,Junior High-Intermediate-Middle,Closed,240 EAST 109 STREET,-73.942285,40.792556
05M123,M123,P.S. 123 Mahalia Jackson,DOE,General Academic,K-8,Open,301 WEST 140 STREET,-73.944551,40.820216
02M124,M124,P.S. 124 Yung Wing,DOE,General Academic,Elementary,Open,40 DIVISION STREET,-73.996017,40.715097
05M125,M125,P.S. 125 Ralph Bunche,DOE,General Academic,Elementary,Open,425 WEST 123 STREET,-73.955722,40.810793
05M125,M125,P.S. 125 Ralph Bunche,DOE,General Academic,Elementary,Open,425 WEST 123 STREET,-73.955722,40.810793
02M126,M126,P.S. 126 Jacob August Riis,DOE,General Academic,K-8,Open,80 CATHERINE STREET,-73.99742,40.710651
06M128,M128,P.S. 128 Audubon,DOE,General Academic,Elementary,Open,560 WEST 169 STREET,-73.938701,40.841032
05M129,M129,P.S. 129 John H. Finley,DOE,General Academic,K-8,Open,425 WEST 130 STREET,-73.95202,40.814914
02M130,M130,P.S. 130 Hernando De Soto,DOE,General Academic,Elementary,Open,143 BAXTER STREET,-73.998326,40.71866
02M131,M131,M.S. 131,DOE,General Academic,Junior High-Intermediate-Middle,Open,100 HESTER STREET,-73.993607,40.716231
06M132,M132,P.S. 132 Juan Pablo Duarte,DOE,General Academic,Elementary,Open,185 WADSWORTH AVENUE,-73.933964,40.850561
05M133,M133,P.S. 133 Fred R Moore,DOE,General Academic,Elementary,Open,2121 5 AVENUE,-73.939178,40.809665
01M134,M134,P.S. 134 Henrietta Szold,DOE,General Academic,Elementary,Open,293 EAST BROADWAY,-73.983854,40.714248
02M135,M135,The Urban Assembly School for Emergency Management,DOE,Career Technical,High school,Open,411 PEARL STREET,-74.000851,40.711441
01M137,M137,P.S. 137 John L. Bernstein,DOE,General Academic,Elementary,Closed,293 EAST BROADWAY,-73.983854,40.714248
75M138,M138,P.S. 138,DOE,Special Education,K-12 all grades,Open,144-176 EAST 128 STREET,-73.935461,40.805653
02M139,M139,Stephen T. Mather Building Arts & Craftsmanship Hi,DOE,Career Technical,High school,Open,439 WEST 49TH STREET,-73.990318,40.763655
01M140,M140,P.S. 140 Nathan Straus,DOE,General Academic,K-8,Open,123 RIDGE STREET,-73.983769,40.719148
01M142,M142,P.S. 142 Amalia Castro,DOE,General Academic,Elementary,Open,100 ATTORNEY STREET,-73.984116,40.718121
06M143,M143,J.H.S. 143 Eleanor Roosevelt,DOE,General Academic,Junior High-Intermediate-Middle,Open,511 WEST 182ND STREET,-73.930991,40.849311
03M145,M145,"P.S. 145, The Bloomingdale School",DOE,General Academic,Elementary,Open,150 WEST 105 STREET,-73.965611,40.799098
04M146,M146,P.S. 146 Ann M. Short,DOE,General Academic,Elementary,Open,421 EAST 106 STREET,-73.938727,40.789535
05M148,M148,Eagle Academy for Young Men of Harlem,DOE,General Academic,Secondary School,Open,6 EDGECOMBE AVENUE,-73.947151,40.817228
03M149,M149,P.S. 149 Sojourner Truth,DOE,General Academic,K-8,Open,41 WEST 117 STREET,-73.948088,40.802649
02M150,M150,P.S. 150,DOE,General Academic,Elementary,Open,334 GREENWICH STREET,-74.01088,40.71953
02M151,M151,Yorkville Community School,DOE,General Academic,Elementary,Open,421 EAST  88 STREET,-73.947287,40.777948
06M152,M152,P.S. 152 Dyckman Valley,DOE,General Academic,Elementary,Open,93 NAGLE AVENUE,-73.927578,40.859804
06M153,M153,P.S. 153 Adam Clayton Powell,DOE,General Academic,Elementary,Open,1750 AMSTERDAM AVENUE,-73.947599,40.826514
05M154,M154,P.S. 154 Harriet Tubman,DOE,General Academic,Elementary,Open,250 WEST 127 STREET,-73.948902,40.810499
04M155,M155,P.S. 155 William Paca,DOE,General Academic,Elementary,Open,319 EAST 117 STREET,-73.935895,40.797507
05M157,M157,The Urban Assembly School for Global Commerce,DOE,Career Technical,High school,Open,2005 MADISON AVENUE,-73.938714,40.807019
02M158,M158,P.S. 158 Bayard Taylor,DOE,General Academic,Elementary,Open,1458 YORK AVENUE,-73.950745,40.770215
05M161,M161,P.S. 161 Pedro Albizu Campos,DOE,General Academic,K-8,Open,499 WEST 133 STREET,-73.952476,40.817719
75M162,M162,PS 162m,DOE,Special Education,Ungraded,Closed,34 WEST 118 STREET,-73.9467,40.8025
03M163,M163,P.S. 163 Alfred E. Smith,DOE,General Academic,Elementary,Open,163 WEST  97 STREET,-73.96847,40.795163
06M164,M164,JHS 164 Edward W Stitt,DOE,General Academic,Junior High-Intermediate-Middle,Closed,401 WEST 164 STREET,-73.9373,40.8366
03M165,M165,P.S. 165 Robert E. Simon,DOE,General Academic,K-8,Open,234 WEST 109 STREET,-73.965949,40.802653
